[{"BranchId":"1","Name":"台中市大甲區(青年店)","Address":"台中市大甲區青年路55號","Tel":"04-26817080","Latitude":"24.4053067","Longitude":"120.6444728","MarkerImg":"chingshin.png"},{"BranchId":"2","Name":"台中市大甲區(通天店)","Address":"台中市大甲區通天路218號","Tel":"04-26811618","Latitude":"24.3817367","Longitude":"120.6536532","MarkerImg":"chingshin.png"},{"BranchId":"3","Name":"台中市大甲區(順天店)","Address":"台中市大甲區順天路193號","Tel":"04-26881565","Latitude":"24.3457176","Longitude":"120.6232719","MarkerImg":"chingshin.png"},{"BranchId":"4","Name":"台中市大甲區(蔣公店)","Address":"台中市大甲區蔣公路223號","Tel":"04-26882861","Latitude":"24.3469765","Longitude":"120.619697","MarkerImg":"chingshin.png"},{"BranchId":"5","Name":"台中市大肚區(沙田二店)","Address":"台中市大肚區沙田路一段327號","Tel":"04-26932067","Latitude":"24.121466","Longitude":"120.5691847","MarkerImg":"chingshin.png"},{"BranchId":"6","Name":"台中市大肚區(沙田店)","Address":"台中市大肚區沙田路二段548-2號","Tel":"04-26990986","Latitude":"24.1492227","Longitude":"120.54584","MarkerImg":"chingshin.png"},{"BranchId":"7","Name":"台中市大肚區(遊園二店)","Address":"台中市龍井區遊園路二段37號","Tel":"04-26911908","Latitude":"24.1692909","Longitude":"120.5792459","MarkerImg":"chingshin.png"},{"BranchId":"8","Name":"台中市大里市(大明店)","Address":"台中市大里區大明路288號","Tel":"04-24824888","Latitude":"24.1149923","Longitude":"120.6779052","MarkerImg":"chingshin.png"},{"BranchId":"9","Name":"台中市大里市(中興二店)","Address":"台中市大里區中興路二段588號","Tel":"04-24852666","Latitude":"24.114559","Longitude":"120.6898027","MarkerImg":"chingshin.png"},{"BranchId":"10","Name":"台中市大里市(中興店)","Address":"台中市大里區中興路二段183-7號","Tel":"04-24817168","Latitude":"24.1069386","Longitude":"120.6895996","MarkerImg":"chingshin.png"},{"BranchId":"11","Name":"台中市大里市(仁化店)","Address":"台中市大里區仁化路200-5號","Tel":"04-24938538","Latitude":"24.094521","Longitude":"120.715121","MarkerImg":"chingshin.png"},{"BranchId":"12","Name":"台中市大里市(東榮店)","Address":"台中市大里區東榮路463號","Tel":"04-24870618","Latitude":"24.1095419","Longitude":"120.681248","MarkerImg":"chingshin.png"},{"BranchId":"13","Name":"台中市大里市(國光店)","Address":"台中市大里區大里路238號","Tel":"04-24079118","Latitude":"24.1002381","Longitude":"120.6810852","MarkerImg":"chingshin.png"},{"BranchId":"14","Name":"台中市大里市(塗城店)","Address":"台中市大里區塗城路561號","Tel":"04-24966778","Latitude":"24.0878167","Longitude":"120.7046958","MarkerImg":"chingshin.png"},{"BranchId":"15","Name":"台中市大里市(新仁店)","Address":"台中市大里區新仁路一段123-9號","Tel":"04-22759299","Latitude":"24.1110807","Longitude":"120.7034314","MarkerImg":"chingshin.png"},{"BranchId":"16","Name":"台中市大里市(鳳城店)","Address":"台中市大里區塗城路950號","Tel":"04-24969891","Latitude":"24.0908888","Longitude":"120.6935161","MarkerImg":"chingshin.png"},{"BranchId":"17","Name":"台中市大里區(仁愛店)","Address":"台中市大里區仁化路458-3號","Tel":"04-24920357","Latitude":"24.0961282","Longitude":"120.7036603","MarkerImg":"chingshin.png"},{"BranchId":"18","Name":"台中市大里區(爽文店)","Address":"台中市大里區大里路408-1號","Tel":"04-24073218","Latitude":"24.0977975","Longitude":"120.6749358","MarkerImg":"chingshin.png"},{"BranchId":"19","Name":"台中市大雅區(中清店)","Address":"台中市大雅區中清路四段283號","Tel":"04-25608516","Latitude":"24.2403961","Longitude":"120.6307384","MarkerImg":"chingshin.png"},{"BranchId":"20","Name":"台中市大雅區(民生店)","Address":"台中市大雅區上雅村民生路一段185號","Tel":"04-25602727","Latitude":"24.2273983","Longitude":"120.6505821","MarkerImg":"chingshin.png"},{"BranchId":"21","Name":"台中市大雅區(永和店)","Address":"台中市大雅區永和路142-20號","Tel":"04-25692373","Latitude":"24.2156712","Longitude":"120.6359349","MarkerImg":"chingshin.png"},{"BranchId":"22","Name":"台中市大雅區(雅潭店)","Address":"台中市大雅區雅潭路四段48號","Tel":"04-25652278","Latitude":"24.2206889","Longitude":"120.6569232","MarkerImg":"chingshin.png"},{"BranchId":"23","Name":"台中市大雅區(雅環店)","Address":"台中市大雅區雅環路一段325號","Tel":"04-25603586","Latitude":"24.2199255","Longitude":"120.653338","MarkerImg":"chingshin.png"},{"BranchId":"24","Name":"台中市大雅區(學府店)","Address":"台中市大雅區學府路162號","Tel":"04-25652776","Latitude":"24.2207663","Longitude":"120.6501474","MarkerImg":"chingshin.png"},{"BranchId":"25","Name":"台中市中區(民生店)","Address":"台中市中區臺灣大道一段320號","Tel":"04-22298585","Latitude":"24.142182","Longitude":"120.680275","MarkerImg":"chingshin.png"},{"BranchId":"26","Name":"台中市中區(建國店)","Address":"台中市中區建國路157號","Tel":"04-22257688","Latitude":"24.1381028","Longitude":"120.6852045","MarkerImg":"chingshin.png"},{"BranchId":"27","Name":"台中市太平市(中山店)","Address":"台中市太平區中山路三段54號","Tel":"04-23922182","Latitude":"24.1491693","Longitude":"120.7205671","MarkerImg":"chingshin.png"},{"BranchId":"28","Name":"台中市太平市(中興店)","Address":"台中市太平區中興路140號","Tel":"04-23511776","Latitude":"24.126494","Longitude":"120.7142886","MarkerImg":"chingshin.png"},{"BranchId":"29","Name":"台中市太平市(太平店)","Address":"台中市太平區太平路156號","Tel":"04-22758779","Latitude":"24.1204798","Longitude":"120.7207763","MarkerImg":"chingshin.png"},{"BranchId":"30","Name":"台中市太平市(光興店)","Address":"台中市太平區光興路640號","Tel":"04-22715122","Latitude":"24.1053519","Longitude":"120.7292651","MarkerImg":"chingshin.png"},{"BranchId":"31","Name":"台中市太平市(東平店)","Address":"台中市太平區東平路495號","Tel":"04-22730369","Latitude":"24.1335123","Longitude":"120.7192507","MarkerImg":"chingshin.png"},{"BranchId":"32","Name":"台中市太平市(勤益店)","Address":"台中市太平區中山路一段272號","Tel":"04-23918688","Latitude":"24.1423488","Longitude":"120.7331667","MarkerImg":"chingshin.png"},{"BranchId":"33","Name":"台中市太平市(樹孝店)","Address":"台中市太平區樹孝路95號","Tel":"04-23937717","Latitude":"24.151985","Longitude":"120.717019","MarkerImg":"chingshin.png"},{"BranchId":"34","Name":"台中市太平區(新平店)","Address":"台中市太平區新平路二段83號","Tel":"04-22755895","Latitude":"24.137999","Longitude":"120.714945","MarkerImg":"chingshin.png"},{"BranchId":"35","Name":"台中市太平區(新福店)","Address":"台中市太平區中山路四段143號","Tel":"04-23980300","Latitude":"24.1480644","Longitude":"120.7030307","MarkerImg":"chingshin.png"},{"BranchId":"36","Name":"台中市太平區(廣三店)","Address":"台中市太平區樹德路233號","Tel":"04-23950077","Latitude":"24.156878","Longitude":"120.712143","MarkerImg":"chingshin.png"},{"BranchId":"37","Name":"台中市北屯區(大連店)","Address":"臺中市北屯區大連路一段345號","Tel":"04-22936622","Latitude":"24.1767922","Longitude":"120.6790623","MarkerImg":"chingshin.png"},{"BranchId":"38","Name":"台中市北屯區(大鵬店)","Address":"台中市北屯區大鵬路62號","Tel":"04-22968966","Latitude":"24.1783316","Longitude":"120.6666396","MarkerImg":"chingshin.png"},{"BranchId":"39","Name":"台中市北屯區(中清店)","Address":"台中市北屯區中清路38之2號","Tel":"04-22991305","Latitude":"24.1775269","Longitude":"120.6694088","MarkerImg":"chingshin.png"},{"BranchId":"40","Name":"台中市北屯區(太原店)","Address":"台中市北屯區太原路三段199號","Tel":"04-22317171","Latitude":"24.1650782","Longitude":"120.6918418","MarkerImg":"chingshin.png"},{"BranchId":"41","Name":"台中市北屯區(北平二店)","Address":"台中市北屯區昌平路二段2-49號","Tel":"04-22411258","Latitude":"24.1791812","Longitude":"120.6907394","MarkerImg":"chingshin.png"},{"BranchId":"42","Name":"台中市北屯區(北平店)","Address":"台中市北屯區北平路三段151號","Tel":"04-22347768","Latitude":"24.171076","Longitude":"120.684029","MarkerImg":"chingshin.png"},{"BranchId":"43","Name":"台中市北屯區(四平店)","Address":"台中市北屯區后庄路71-3號","Tel":"04-24226883","Latitude":"24.192865","Longitude":"120.68172","MarkerImg":"chingshin.png"},{"BranchId":"44","Name":"台中市北屯區(后庄店)","Address":"台中市北屯區后庄路22號","Tel":"04-24258822","Latitude":"24.188766","Longitude":"120.662998","MarkerImg":"chingshin.png"},{"BranchId":"45","Name":"台中市北屯區(昌平店)","Address":"台中市北屯區昌平路一段250-1號1F","Tel":"04-22322998","Latitude":"24.1709079","Longitude":"120.691484","MarkerImg":"chingshin.png"},{"BranchId":"46","Name":"台中市北屯區(東山二店)","Address":"台中市北屯區東山路一段156號","Tel":"04-24350099","Latitude":"24.1697053","Longitude":"120.7075631","MarkerImg":"chingshin.png"},{"BranchId":"47","Name":"台中市北屯區(東山店)","Address":"台中市北屯區軍功路二段102號","Tel":"04-22399916","Latitude":"24.1777239","Longitude":"120.7195075","MarkerImg":"chingshin.png"},{"BranchId":"48","Name":"台中市北屯區(松竹店)","Address":"台中市北屯區松竹路二段376號1樓","Tel":"04-22491191","Latitude":"24.182272","Longitude":"120.689212","MarkerImg":"chingshin.png"},{"BranchId":"49","Name":"台中市北屯區(精武店)","Address":"台中市北區精武路226號","Tel":"04-22151122","Latitude":"24.1473028","Longitude":"120.6897079","MarkerImg":"chingshin.png"},{"BranchId":"50","Name":"台中市北屯區(熱河店)","Address":"台中市北屯區熱河路二段180號","Tel":"04-22470776","Latitude":"24.172894","Longitude":"120.687913","MarkerImg":"chingshin.png"},{"BranchId":"51","Name":"台中市北屯區(興安店)","Address":"台中市北屯區興安路一段273號","Tel":"04-22462618","Latitude":"24.17278","Longitude":"120.69414","MarkerImg":"chingshin.png"},{"BranchId":"52","Name":"台中市北屯區(遼寧店)","Address":"台中市北屯區松竹路二段169號","Tel":"04-22465578","Latitude":"24.1831191","Longitude":"120.6956541","MarkerImg":"chingshin.png"},{"BranchId":"53","Name":"台中市北屯區(豐樂店)","Address":"台中市北屯區崇德路三段602號","Tel":"04-24212138","Latitude":"24.1932493","Longitude":"120.6867131","MarkerImg":"chingshin.png"},{"BranchId":"54","Name":"台中市北區(三民店)","Address":"台中市北區三民路三段257號","Tel":"04-22339536","Latitude":"24.15614","Longitude":"120.68733","MarkerImg":"chingshin.png"},{"BranchId":"55","Name":"台中市北區(大雅店)","Address":"台中市北區大雅路324號","Tel":"04-22087111","Latitude":"24.164105","Longitude":"120.674444","MarkerImg":"chingshin.png"},{"BranchId":"56","Name":"台中市北區(五常店)","Address":"台中市北區學士路151號","Tel":"04-22073211","Latitude":"24.1582535","Longitude":"120.6807903","MarkerImg":"chingshin.png"},{"BranchId":"57","Name":"台中市北區(五權店)","Address":"台中市北區五權路284號","Tel":"04-22065718","Latitude":"24.151457","Longitude":"120.678478","MarkerImg":"chingshin.png"},{"BranchId":"58","Name":"台中市北區(北屯店)","Address":"台中市北區北屯路14之4號","Tel":"04-22377722","Latitude":"24.1604162","Longitude":"120.6921633","MarkerImg":"chingshin.png"},{"BranchId":"59","Name":"台中市北區(民權店)","Address":"台中市北區民權路472-6號","Tel":"04-22071588","Latitude":"24.158772","Longitude":"120.670732","MarkerImg":"chingshin.png"},{"BranchId":"60","Name":"台中市北區(永興店)","Address":"台中市北區漢口路四段248號","Tel":"04-22306516","Latitude":"24.166917","Longitude":"120.6815","MarkerImg":"chingshin.png"},{"BranchId":"61","Name":"台中市北區(立人店)","Address":"台中市北區北平路二段19號","Tel":"04-22922186","Latitude":"24.171868","Longitude":"120.672692","MarkerImg":"chingshin.png"},{"BranchId":"62","Name":"台中市北區(自強店)","Address":"台中市北區進化路347號","Tel":"04-23606628","Latitude":"24.1537732","Longitude":"120.6942035","MarkerImg":"chingshin.png"},{"BranchId":"63","Name":"台中市北區(忠明店)","Address":"台中市北區西屯路一段420號","Tel":"04-22067769","Latitude":"24.1610705","Longitude":"120.6651094","MarkerImg":"chingshin.png"},{"BranchId":"64","Name":"台中市北區(漢口店)","Address":"台中市北區漢口路三段102號","Tel":"04-22928358","Latitude":"24.166692","Longitude":"120.670095","MarkerImg":"chingshin.png"},{"BranchId":"65","Name":"台中市北區(德化店)","Address":"台中市北區永興街103號","Tel":"04-22303038","Latitude":"24.1613136","Longitude":"120.6822474","MarkerImg":"chingshin.png"},{"BranchId":"66","Name":"台中市外埔區(甲后店)","Address":"台中市外埔區甲后路717號","Tel":"04-26801965","Latitude":"24.333146","Longitude":"120.6518518","MarkerImg":"chingshin.png"},{"BranchId":"67","Name":"台中市石岡區(豐勢店)","Address":"台中市石岡區豐勢路766號","Tel":"04-25821168","Latitude":"24.2701737","Longitude":"120.7513447","MarkerImg":"chingshin.png"},{"BranchId":"68","Name":"台中市后里區(公安店)","Address":"台中市后里區公安路56號","Tel":"04-25588827","Latitude":"24.3040735","Longitude":"120.7124406","MarkerImg":"chingshin.png"},{"BranchId":"69","Name":"台中市后里區(甲后店)","Address":"台中市后里區甲后路442號","Tel":"04-25567995","Latitude":"24.3322658","Longitude":"120.6528168","MarkerImg":"chingshin.png"},{"BranchId":"70","Name":"台中市西屯區(大信二店)","Address":"台中市西屯區甘肅路一段188號","Tel":"04-23153711","Latitude":"24.1680274","Longitude":"120.6575469","MarkerImg":"chingshin.png"},{"BranchId":"71","Name":"台中市西屯區(大信店)","Address":"台中市西屯區西屯路二段21之1號","Tel":"04-23132686","Latitude":"24.16381","Longitude":"120.661224","MarkerImg":"chingshin.png"},{"BranchId":"72","Name":"台中市西屯區(大墩店)","Address":"台中市西屯區大墩路864號","Tel":"04-23207668","Latitude":"24.1560015","Longitude":"120.6500229","MarkerImg":"chingshin.png"},{"BranchId":"73","Name":"台中市西屯區(工業店)","Address":"台中市西屯區工業一路98之22號","Tel":"04-23591618","Latitude":"24.1742039","Longitude":"120.613697","MarkerImg":"chingshin.png"},{"BranchId":"74","Name":"台中市西屯區(中工店)","Address":"台中市西屯區中工三路163號","Tel":"04-23588876","Latitude":"24.1770849","Longitude":"120.618483","MarkerImg":"chingshin.png"},{"BranchId":"75","Name":"台中市西屯區(中康店)","Address":"台中市西屯區中清路二段1416號","Tel":"04-24256622","Latitude":"24.1995744","Longitude":"120.6556336","MarkerImg":"chingshin.png"},{"BranchId":"76","Name":"台中市西屯區(市政店)","Address":"台中市西屯區市政路614號","Tel":"04-22515176","Latitude":"24.1619119","Longitude":"120.6330203","MarkerImg":"chingshin.png"},{"BranchId":"77","Name":"台中市西屯區(西屯店)","Address":"台中市西屯區河南路二段229號","Tel":"04-24527812","Latitude":"24.1749416","Longitude":"120.6492392","MarkerImg":"chingshin.png"},{"BranchId":"78","Name":"台中市西屯區(河南店)","Address":"台中市西屯區河南路二段471之3號","Tel":"04-27080185","Latitude":"24.1690179","Longitude":"120.642481","MarkerImg":"chingshin.png"},{"BranchId":"79","Name":"台中市西屯區(青海店)","Address":"台中市西屯區青海路一段30號","Tel":"04-23175353","Latitude":"24.1636538","Longitude":"120.6567754","MarkerImg":"chingshin.png"},{"BranchId":"80","Name":"台中市西屯區(福林二店)","Address":"台中市西屯區西屯路3段166之19號","Tel":"04-24652286","Latitude":"24.189212","Longitude":"120.615961","MarkerImg":"chingshin.png"},{"BranchId":"81","Name":"台中市西屯區(福林店)","Address":"台中市西屯區西屯路三段151-7號","Tel":"04-24632168","Latitude":"24.186066","Longitude":"120.622309","MarkerImg":"chingshin.png"},{"BranchId":"82","Name":"台中市西屯區(福星二店)","Address":"台中市西屯區文華路7之4號","Tel":"04-24515666","Latitude":"24.1757421","Longitude":"120.6450425","MarkerImg":"chingshin.png"},{"BranchId":"83","Name":"台中市西屯區(福星北店)","Address":"台中市西屯區福星路325號","Tel":"04-27061388","Latitude":"24.1812716","Longitude":"120.6451742","MarkerImg":"chingshin.png"},{"BranchId":"84","Name":"台中市西屯區(福星店)","Address":"台中市西屯區福星路596號","Tel":"04-27081717","Latitude":"24.1747696","Longitude":"120.6467893","MarkerImg":"chingshin.png"},{"BranchId":"85","Name":"台中市西屯區(福科店)","Address":"台中市西屯區福科路925號","Tel":"04-24632258","Latitude":"24.1872128","Longitude":"120.6066269","MarkerImg":"chingshin.png"},{"BranchId":"86","Name":"台中市西屯區(櫻花店)","Address":"台中市西屯區櫻花路86號","Tel":"04-23176122","Latitude":"24.1709086","Longitude":"120.651129","MarkerImg":"chingshin.png"},{"BranchId":"87","Name":"台中市西區(五權二店)","Address":"台中市西區五權路56-2號","Tel":"04-22050266","Latitude":"24.1457679","Longitude":"120.671965","MarkerImg":"chingshin.png"},{"BranchId":"88","Name":"台中市西區(公正店)","Address":"台中市西區美村路一段229號","Tel":"04-23020918","Latitude":"24.149243","Longitude":"120.6618703","MarkerImg":"chingshin.png"},{"BranchId":"89","Name":"台中市西區(公益店)","Address":"台中市西區公益路188-3號","Tel":"04-23261900","Latitude":"24.1510151","Longitude":"120.6568949","MarkerImg":"chingshin.png"},{"BranchId":"90","Name":"台中市西區(忠誠店)","Address":"台中市西區美村路一段84號","Tel":"04-23194589","Latitude":"24.152351","Longitude":"120.661436","MarkerImg":"chingshin.png"},{"BranchId":"91","Name":"台中市西區(林森店)","Address":"台中市西區林森路249號","Tel":"04-23718116","Latitude":"24.1401068","Longitude":"120.6676196","MarkerImg":"chingshin.png"},{"BranchId":"92","Name":"台中市西區(美村店)","Address":"台中市西區美村路一段666號","Tel":"04-23785129","Latitude":"24.1356268","Longitude":"120.6614786","MarkerImg":"chingshin.png"},{"BranchId":"93","Name":"台中市西區(萬壽店)","Address":"台中市南屯區大墩路465號","Tel":"04-23293366","Latitude":"24.147432","Longitude":"120.649545","MarkerImg":"chingshin.png"},{"BranchId":"94","Name":"台中市西區(篤行店)","Address":"台中市西區篤行路209號","Tel":"04-22018822","Latitude":"24.1513807","Longitude":"120.6734979","MarkerImg":"chingshin.png"},{"BranchId":"95","Name":"台中市沙鹿區(中興店)","Address":"台中市沙鹿區向上路七段26號","Tel":"04-26368327","Latitude":"24.1667661","Longitude":"120.5854585","MarkerImg":"chingshin.png"},{"BranchId":"96","Name":"台中市沙鹿區(光華店)","Address":"台中市沙鹿區光華路345號","Tel":"04-26656136","Latitude":"24.242463","Longitude":"120.564874","MarkerImg":"chingshin.png"},{"BranchId":"97","Name":"台中市沙鹿區(竹林店)","Address":"台中市沙鹿區中山路184-1號","Tel":"04-26633939","Latitude":"24.2375864","Longitude":"120.5636535","MarkerImg":"chingshin.png"},{"BranchId":"98","Name":"台中市沙鹿區(區南店)","Address":"台中市沙鹿區興安路1號","Tel":"04-26367373","Latitude":"24.2294499","Longitude":"120.550189","MarkerImg":"chingshin.png"},{"BranchId":"99","Name":"台中市沙鹿區(靜宜店)","Address":"台中市沙鹿區英才路11-2號","Tel":"04-26523388","Latitude":"24.2265328","Longitude":"120.5750346","MarkerImg":"chingshin.png"},{"BranchId":"100","Name":"台中市東區(十甲店)","Address":"台中市東區十甲路412號","Tel":"04-22152516","Latitude":"24.144189","Longitude":"120.708168","MarkerImg":"chingshin.png"},{"BranchId":"101","Name":"台中市東區(大智店)","Address":"台中市東區大智路59號","Tel":"04-22258299","Latitude":"24.1350199","Longitude":"120.688892","MarkerImg":"chingshin.png"},{"BranchId":"102","Name":"台中市東區(忠孝店)","Address":"台中市南區忠孝路186號","Tel":"04-22812121","Latitude":"24.1297649","Longitude":"120.683043","MarkerImg":"chingshin.png"},{"BranchId":"103","Name":"台中市東區(建成店)","Address":"台中市東區建成路661號","Tel":"04-22810599","Latitude":"24.1316299","Longitude":"120.690749","MarkerImg":"chingshin.png"},{"BranchId":"104","Name":"台中市東區(復興店)","Address":"台中市東區復興路四段147號","Tel":"04-22218893","Latitude":"24.135974","Longitude":"120.686068","MarkerImg":"chingshin.png"},{"BranchId":"105","Name":"台中市東區(樂成店)","Address":"台中市東區樂業路198號","Tel":"04-22115329","Latitude":"24.138612","Longitude":"120.697725","MarkerImg":"chingshin.png"},{"BranchId":"106","Name":"台中市東區(樂業店)","Address":"台中東區樂業路449號","Tel":"04-22151815","Latitude":"24.1366925","Longitude":"120.7066955","MarkerImg":"chingshin.png"},{"BranchId":"107","Name":"台中市東勢區(中山店)","Address":"台中市東勢區中山路58號","Tel":"04-25875779","Latitude":"24.257195","Longitude":"120.8296302","MarkerImg":"chingshin.png"},{"BranchId":"108","Name":"台中市東勢區(豐勢店)","Address":"台中市東勢區豐勢路68號","Tel":"04-25888279","Latitude":"24.2482421","Longitude":"120.8318326","MarkerImg":"chingshin.png"},{"BranchId":"109","Name":"台中市南屯區(三厝二店)","Address":"台中市南屯區黎明路二段323號","Tel":"04-22546616","Latitude":"24.149652","Longitude":"120.635288","MarkerImg":"chingshin.png"},{"BranchId":"110","Name":"台中市南屯區(文山店)","Address":"台中市南屯區忠勇路991-號","Tel":"04-23801885","Latitude":"24.1497551","Longitude":"120.6154703","MarkerImg":"chingshin.png"},{"BranchId":"111","Name":"台中市南屯區(永春南店)","Address":"台中市南屯區永春南路49號","Tel":"04-23800371","Latitude":"24.138262","Longitude":"120.611866","MarkerImg":"chingshin.png"},{"BranchId":"112","Name":"台中市南屯區(向心南店)","Address":"台中市南屯區向心南路958號","Tel":"04-24758366","Latitude":"24.1370721","Longitude":"120.6438851","MarkerImg":"chingshin.png"},{"BranchId":"113","Name":"台中市南屯區(東興店)","Address":"台中市南屯區東興路二段276號","Tel":"04-24725212","Latitude":"24.1435867","Longitude":"120.6531621","MarkerImg":"chingshin.png"},{"BranchId":"114","Name":"台中市南屯區(南屯店)","Address":"台中市南屯區南屯路二段105號","Tel":"04-24755185","Latitude":"24.1358162","Longitude":"120.6522331","MarkerImg":"chingshin.png"},{"BranchId":"115","Name":"台中市南屯區(黎明店)","Address":"台中市南屯區黎明路一段118號","Tel":"04-24701935","Latitude":"24.1147242","Longitude":"120.6264826","MarkerImg":"chingshin.png"},{"BranchId":"116","Name":"台中市南屯區(寶山店)","Address":"台中市南屯區五權西路三段97號","Tel":"04-23820569","Latitude":"24.153409","Longitude":"120.614447","MarkerImg":"chingshin.png"},{"BranchId":"117","Name":"台中市南區(大慶店)","Address":"台中市南區大慶街二段11號","Tel":"04-22627938","Latitude":"24.1146493","Longitude":"120.6518465","MarkerImg":"chingshin.png"},{"BranchId":"118","Name":"台中市南區(工學店)","Address":"台中市南區工學路147號","Tel":"04-22611711","Latitude":"24.116624","Longitude":"120.659767","MarkerImg":"chingshin.png"},{"BranchId":"119","Name":"台中市南區(南門店)","Address":"台中市南區南門路111號","Tel":"04-22856262","Latitude":"24.122179","Longitude":"120.679936","MarkerImg":"chingshin.png"},{"BranchId":"120","Name":"台中市南區(高工店)","Address":"台中市南區高工路287號","Tel":"04-22625611","Latitude":"24.1139047","Longitude":"120.6650227","MarkerImg":"chingshin.png"},{"BranchId":"121","Name":"台中市南區(健康店)","Address":"台中市南區美村南路19號","Tel":"04-22651117","Latitude":"24.1214111","Longitude":"120.6666783","MarkerImg":"chingshin.png"},{"BranchId":"122","Name":"台中市南區(國光店)","Address":"台中市南區國光路156-3號","Tel":"04-22850893","Latitude":"24.127818","Longitude":"120.67846","MarkerImg":"chingshin.png"},{"BranchId":"123","Name":"台中市烏日區(中山店)","Address":"台中市烏日區中山路一段310號","Tel":"04-23375661","Latitude":"24.108548","Longitude":"120.640694","MarkerImg":"chingshin.png"},{"BranchId":"124","Name":"台中市烏日區(中華店)","Address":"台中市烏日區中華路581號","Tel":"04-23388978","Latitude":"24.1080434","Longitude":"120.6341172","MarkerImg":"chingshin.png"},{"BranchId":"125","Name":"台中市烏日區(成功店)","Address":"台中市烏日區中山路三段593號","Tel":"04-23365899","Latitude":"24.110691","Longitude":"120.6002656","MarkerImg":"chingshin.png"},{"BranchId":"126","Name":"台中市烏日區(溪南店)","Address":"台中市烏日區溪南路一段630號","Tel":"04-23355861","Latitude":"24.076593","Longitude":"120.6431856","MarkerImg":"chingshin.png"},{"BranchId":"127","Name":"台中市神岡區(大洲店)","Address":"台中市神岡區大洲路313號","Tel":"04-25227575","Latitude":"24.2493911","Longitude":"120.6958595","MarkerImg":"chingshin.png"},{"BranchId":"128","Name":"台中市神岡區(中山店)","Address":"台中市神岡區中山路1436號","Tel":"04-25626969","Latitude":"24.2397817","Longitude":"120.7113569","MarkerImg":"chingshin.png"},{"BranchId":"129","Name":"台中市神岡區(民生店)","Address":"台中市神岡區民生路27之5號","Tel":"04-25626569","Latitude":"24.2261069","Longitude":"120.6464609","MarkerImg":"chingshin.png"},{"BranchId":"130","Name":"台中市神岡區(豐洲店)","Address":"台中市神岡區豐洲路186號","Tel":"04-25122805","Latitude":"24.2590755","Longitude":"120.7097426","MarkerImg":"chingshin.png"},{"BranchId":"131","Name":"台中市梧棲區(中央店)","Address":"台中市梧棲區中央路一段914-3號","Tel":"04-26581569","Latitude":"24.2474481","Longitude":"120.5382622","MarkerImg":"chingshin.png"},{"BranchId":"132","Name":"台中市梧棲區(文化店)","Address":"台中市梧棲區文化路二段268號","Tel":"04-26571693","Latitude":"24.2572508","Longitude":"120.5317369","MarkerImg":"chingshin.png"},{"BranchId":"133","Name":"台中市清水區(中山店)","Address":"台中市清水區中山路199號","Tel":"04-26222867","Latitude":"24.2676544","Longitude":"120.5747473","MarkerImg":"chingshin.png"},{"BranchId":"134","Name":"台中市清水區(中華店)","Address":"台中市清水區中華路470號","Tel":"04-26223673","Latitude":"24.2748136","Longitude":"120.5709937","MarkerImg":"chingshin.png"},{"BranchId":"135","Name":"台中市新社區(興安店)","Address":"台中市新社區興安路18-40號","Tel":"04-25823417","Latitude":"24.2414172","Longitude":"120.8086166","MarkerImg":"chingshin.png"},{"BranchId":"136","Name":"台中市潭子區(大新店)","Address":"台中市潭子區大新路88號","Tel":"04-25361356","Latitude":"24.2023465","Longitude":"120.7065339","MarkerImg":"chingshin.png"},{"BranchId":"137","Name":"台中市潭子區(光陽店)","Address":"台中市潭子區光陽路36號","Tel":"04-25362558","Latitude":"24.2124924","Longitude":"120.710727","MarkerImg":"chingshin.png"},{"BranchId":"138","Name":"台中市潭子區(東寶店)","Address":"台中市潭子區昌平路三段108號","Tel":"04-25341422","Latitude":"24.1887368","Longitude":"120.686249","MarkerImg":"chingshin.png"},{"BranchId":"139","Name":"台中市潭子區(祥和店)","Address":"台中市潭子區祥和路167號","Tel":"04-25390099","Latitude":"24.2296555","Longitude":"120.7117387","MarkerImg":"chingshin.png"},{"BranchId":"140","Name":"台中市潭子區(勝利店)","Address":"台中市潭子區勝利路127號","Tel":"04-25355829","Latitude":"24.2095727","Longitude":"120.701044","MarkerImg":"chingshin.png"},{"BranchId":"141","Name":"台中市潭子區(雅潭店)","Address":"台中市潭子區雅潭路一段131號","Tel":"04-25332386","Latitude":"24.2161352","Longitude":"120.7016682","MarkerImg":"chingshin.png"},{"BranchId":"142","Name":"台中市潭子區(榮興店)","Address":"台中市潭子區榮興街47號","Tel":"04-25359171","Latitude":"24.1886023","Longitude":"120.701705","MarkerImg":"chingshin.png"},{"BranchId":"143","Name":"台中市潭子區(興華店)","Address":"台中市潭子區大豐路三段70號","Tel":"04-25317571","Latitude":"24.2226909","Longitude":"120.6922437","MarkerImg":"chingshin.png"},{"BranchId":"144","Name":"台中市潭子區(頭張店)","Address":"台中市潭子區頭張路一段42號","Tel":"04-25341917","Latitude":"24.1944979","Longitude":"120.6993437","MarkerImg":"chingshin.png"},{"BranchId":"145","Name":"台中市潭子區(豐興店)","Address":"台中市潭子區豐興路一段467號","Tel":"04-25395345","Latitude":"24.1972279","Longitude":"120.7216454","MarkerImg":"chingshin.png"},{"BranchId":"146","Name":"台中市龍井區(中央店)","Address":"台中市龍井區中央路二段239號","Tel":"04-26380783","Latitude":"24.25363","Longitude":"120.5399341","MarkerImg":"chingshin.png"},{"BranchId":"147","Name":"台中市龍井區(國際店)","Address":"台中市龍井區國際街149號","Tel":"04-26338867","Latitude":"24.187318","Longitude":"120.595579","MarkerImg":"chingshin.png"},{"BranchId":"148","Name":"台中市龍井區(新興店)","Address":"台中市龍井區新興路38-5號","Tel":"04-26521766","Latitude":"24.1814986","Longitude":"120.5867294","MarkerImg":"chingshin.png"},{"BranchId":"149","Name":"台中市龍井區(遊園店)","Address":"台中市龍井區遊園南路151號","Tel":"04-26529779","Latitude":"24.1830132","Longitude":"120.5845228","MarkerImg":"chingshin.png"},{"BranchId":"150","Name":"台中市豐原市(三民店)","Address":"台中市豐原區三民路111號","Tel":"04-25256115","Latitude":"24.2533836","Longitude":"120.7194099","MarkerImg":"chingshin.png"},{"BranchId":"151","Name":"台中市豐原市(三豐店)","Address":"台中市豐原區三豐路704號","Tel":"04-25150558","Latitude":"24.2677492","Longitude":"120.7208229","MarkerImg":"chingshin.png"},{"BranchId":"152","Name":"台中市豐原市(中正店)","Address":"台中市豐原區中正路729號","Tel":"04-25270175","Latitude":"24.2489594","Longitude":"120.7010725","MarkerImg":"chingshin.png"},{"BranchId":"153","Name":"台中市豐原市(市前店)","Address":"台中市豐原區區前街9號","Tel":"04-25207829","Latitude":"24.245741","Longitude":"120.712762","MarkerImg":"chingshin.png"},{"BranchId":"154","Name":"台中市豐原市(田心店)","Address":"台中市豐原區田心路二段188號","Tel":"04-25151885","Latitude":"24.239391","Longitude":"120.721201","MarkerImg":"chingshin.png"},{"BranchId":"155","Name":"台中市豐原市(南陽店)","Address":"台中市豐原區南陽路406號","Tel":"04-25224868","Latitude":"24.2469659","Longitude":"120.724606","MarkerImg":"chingshin.png"},{"BranchId":"156","Name":"台中市豐原市(豐東店)","Address":"台中市豐原區豐東路212號","Tel":"04-25283916","Latitude":"24.249467","Longitude":"120.731297","MarkerImg":"chingshin.png"},{"BranchId":"157","Name":"台中市豐原市(豐原成功店)","Address":"台中市豐原區成功路173號","Tel":"04-25121265","Latitude":"24.2450327","Longitude":"120.70931","MarkerImg":"chingshin.png"},{"BranchId":"158","Name":"台中市豐原區(水源店)","Address":"台中市豐原區水源路213號","Tel":"04-25255538","Latitude":"24.2556474","Longitude":"120.7396739","MarkerImg":"chingshin.png"},{"BranchId":"159","Name":"台中市豐原區(豐大店)","Address":"台中市豐原區中正路688號","Tel":"04-25238566","Latitude":"24.25003","Longitude":"120.704837","MarkerImg":"chingshin.png"},{"BranchId":"160","Name":"台中市霧峰區(中正店)","Address":"台中市霧峰區中正路822號","Tel":"04-23331658","Latitude":"24.0607067","Longitude":"120.6981687","MarkerImg":"chingshin.png"},{"BranchId":"161","Name":"台中市霧峰區(四德店)","Address":"台中市霧峰區四德路348號1樓","Tel":"04-23319911","Latitude":"24.064807","Longitude":"120.6787659","MarkerImg":"chingshin.png"},{"BranchId":"162","Name":"台中市霧峰區(民生店)","Address":"台中市霧峰區民生路268號","Tel":"04-23326681","Latitude":"24.07607","Longitude":"120.7147895","MarkerImg":"chingshin.png"},{"BranchId":"163","Name":"台中市霧峰區(德維店)","Address":"台中市霧峰區中正路1118號","Tel":"04-23311166","Latitude":"24.0698394","Longitude":"120.6992894","MarkerImg":"chingshin.png"},{"BranchId":"164","Name":"台中市霧峰區(樹仁店)","Address":"台中市霧峰區樹仁路163-1號","Tel":"04-23318898","Latitude":"24.0587556","Longitude":"120.6963857","MarkerImg":"chingshin.png"},{"BranchId":"165","Name":"台北市士林區(中正店)","Address":"台北市士林區文林路434號","Tel":"02-28829191","Latitude":"25.0946885","Longitude":"121.524836","MarkerImg":"chingshin.png"},{"BranchId":"166","Name":"台北市士林區(天母店)","Address":"台北市士林區天母西路44號","Tel":"02-28761717","Latitude":"25.1192057","Longitude":"121.5296282","MarkerImg":"chingshin.png"},{"BranchId":"167","Name":"台北市士林區(文昌店)","Address":"台北市士林區文昌路16號","Tel":"02-28311515","Latitude":"25.095002","Longitude":"121.521806","MarkerImg":"chingshin.png"},{"BranchId":"168","Name":"台北市士林區(忠義店)","Address":"台北市士林區德行東路207-1號","Tel":"02-28382099","Latitude":"25.1092345","Longitude":"121.5323993","MarkerImg":"chingshin.png"},{"BranchId":"169","Name":"台北市士林區(社子店)","Address":"台北市士林區延平北路六段129號","Tel":"02-28126988","Latitude":"25.0891352","Longitude":"121.5076459","MarkerImg":"chingshin.png"},{"BranchId":"170","Name":"台北市士林區(陽明店)","Address":"台北市士林區文林路101巷26號","Tel":"02-28805757","Latitude":"25.0878609","Longitude":"121.525552","MarkerImg":"chingshin.png"},{"BranchId":"171","Name":"台北市士林區(福華店)","Address":"台北市士林區福華路142號","Tel":"02-28335151","Latitude":"25.1032908","Longitude":"121.5227684","MarkerImg":"chingshin.png"},{"BranchId":"172","Name":"台北市士林區(劍潭店)","Address":"台北市士林區基河路122號1樓","Tel":"02-28835757","Latitude":"25.088538","Longitude":"121.523267","MarkerImg":"chingshin.png"},{"BranchId":"173","Name":"台北市大同區(大龍店)","Address":"台北市大同區大龍街267號","Tel":"02-25993301","Latitude":"25.0717145","Longitude":"121.5159337","MarkerImg":"chingshin.png"},{"BranchId":"174","Name":"台北市大同區(延平北店)","Address":"台北市大同區延平北路三段25之1號","Tel":"02-25964768","Latitude":"25.06438","Longitude":"121.511289","MarkerImg":"chingshin.png"},{"BranchId":"175","Name":"台北市大同區(保生店)","Address":"台北市大同區歸綏街172號","Tel":"02-25507985","Latitude":"25.058072","Longitude":"121.512483","MarkerImg":"chingshin.png"},{"BranchId":"176","Name":"台北市大安區(大安店)","Address":"台北市大安區大安路一段229號","Tel":"02-23256696","Latitude":"25.0344872","Longitude":"121.5461937","MarkerImg":"chingshin.png"},{"BranchId":"177","Name":"台北市大安區(市民店)","Address":"台北市大安區市民大道3段136號","Tel":"02-27772151","Latitude":"25.0446959","Longitude":"121.534956","MarkerImg":"chingshin.png"},{"BranchId":"178","Name":"台北市大安區(光復南店)","Address":"台北市大安區光復南路456巷6號1樓","Tel":"02-27041995","Latitude":"25.0355265","Longitude":"121.5569835","MarkerImg":"chingshin.png"},{"BranchId":"179","Name":"台北市大安區(和平東店)","Address":"台北市大安區和平東路3段294號","Tel":"02-87327588","Latitude":"25.0207192","Longitude":"121.5561518","MarkerImg":"chingshin.png"},{"BranchId":"180","Name":"台北市大安區(杭州南店)","Address":"台北市大安區杭州南路2段87號1樓","Tel":"02-23568851","Latitude":"25.0287417","Longitude":"121.5219614","MarkerImg":"chingshin.png"},{"BranchId":"181","Name":"台北市大安區(師大店)","Address":"台北市大安區龍泉街13號","Tel":"02-23661900","Latitude":"25.025485","Longitude":"121.529303","MarkerImg":"chingshin.png"},{"BranchId":"182","Name":"台北市大安區(臨江店)","Address":"台北市大安區臨江街128號","Tel":"02-27336155","Latitude":"25.0302627","Longitude":"121.5538173","MarkerImg":"chingshin.png"},{"BranchId":"183","Name":"台北市中山區(大直店)","Address":"台北市中山區北安路528號","Tel":"02-25335922","Latitude":"25.079704","Longitude":"121.546447","MarkerImg":"chingshin.png"},{"BranchId":"184","Name":"台北市中山區(北安店)","Address":"台北市中山區北安路595巷35號","Tel":"02-25330098","Latitude":"25.082269","Longitude":"121.547032","MarkerImg":"chingshin.png"},{"BranchId":"185","Name":"台北市中山區(民生東店)","Address":"台北市中山區民生東路一段40號","Tel":"02-25412121","Latitude":"25.0578915","Longitude":"121.5243582","MarkerImg":"chingshin.png"},{"BranchId":"186","Name":"台北市中山區(光華店)","Address":"台北市中山區長安東路二段46號","Tel":"02-25423939","Latitude":"25.0483695","Longitude":"121.531882","MarkerImg":"chingshin.png"},{"BranchId":"187","Name":"台北市中山區(松江店)","Address":"台北市中山區錦州街247-1號","Tel":"02-25042858","Latitude":"25.0604633","Longitude":"121.5340317","MarkerImg":"chingshin.png"},{"BranchId":"188","Name":"台北市中山區(復興北店)","Address":"台北市中山區復興北路514巷62號","Tel":"02-25007119","Latitude":"25.065868","Longitude":"121.5414274","MarkerImg":"chingshin.png"},{"BranchId":"189","Name":"台北市中山區(德惠店)","Address":"台北市中山區吉林路423號","Tel":"02-25860202","Latitude":"25.0667091","Longitude":"121.5304999","MarkerImg":"chingshin.png"},{"BranchId":"190","Name":"台北市中山區(錦西店)","Address":"台北市中山區錦西街4-7號","Tel":"02-25212012","Latitude":"25.0602122","Longitude":"121.5220675","MarkerImg":"chingshin.png"},{"BranchId":"191","Name":"台北市中山區(雙城店)","Address":"台北市中山區雙城街13巷26號","Tel":"02-25991177","Latitude":"25.0640999","Longitude":"121.5250845","MarkerImg":"chingshin.png"},{"BranchId":"192","Name":"台北市中正區(公館店)","Address":"台北市中正區羅斯福路三段316巷10-1號1樓","Tel":"02-23678838","Latitude":"25.0156409","Longitude":"121.532435","MarkerImg":"chingshin.png"},{"BranchId":"193","Name":"台北市中正區(青島東店)","Address":"台北市中正區杭州南路一段10號","Tel":"02-33225069","Latitude":"25.0431017","Longitude":"121.5264617","MarkerImg":"chingshin.png"},{"BranchId":"194","Name":"台北市中正區(信陽店)","Address":"台北市中正區信陽街6-1號","Tel":"02-23753889","Latitude":"25.0445175","Longitude":"121.5163291","MarkerImg":"chingshin.png"},{"BranchId":"195","Name":"台北市中正區(開封店)","Address":"台北市中正區開封街一段64號","Tel":"02-23710880","Latitude":"25.045903","Longitude":"121.51164","MarkerImg":"chingshin.png"},{"BranchId":"196","Name":"台北市內湖區(江南店)","Address":"台北市內湖區江南街99號","Tel":"02-87974399","Latitude":"25.0767539","Longitude":"121.5768655","MarkerImg":"chingshin.png"},{"BranchId":"197","Name":"台北市內湖區(西湖店)","Address":"台北市內湖區內湖路一段285巷3號1F","Tel":"02-87971968","Latitude":"25.0825221","Longitude":"121.566941","MarkerImg":"chingshin.png"},{"BranchId":"198","Name":"台北市內湖區(東湖店)","Address":"台北市內湖區東湖路146號","Tel":"02-26306626","Latitude":"25.0679573","Longitude":"121.6170566","MarkerImg":"chingshin.png"},{"BranchId":"199","Name":"台北市內湖區(港墘店)","Address":"台北市內湖區內湖路一段737巷56號","Tel":"02-27996737","Latitude":"25.0807771","Longitude":"121.5789788","MarkerImg":"chingshin.png"},{"BranchId":"200","Name":"台北市內湖區(新明店)","Address":"台北市內湖區新明路244號","Tel":"02-27903186","Latitude":"25.0568228","Longitude":"121.5839321","MarkerImg":"chingshin.png"},{"BranchId":"201","Name":"台北市內湖區(碧湖店)","Address":"台北市內湖區內湖路2段343號","Tel":"02-27940591","Latitude":"25.083454","Longitude":"121.59174","MarkerImg":"chingshin.png"},{"BranchId":"202","Name":"台北市文山區(木新店)","Address":"台北市文山區木新路三段143號","Tel":"02-29366236","Latitude":"24.9817929","Longitude":"121.5615644","MarkerImg":"chingshin.png"},{"BranchId":"203","Name":"台北市文山區(辛亥店)","Address":"台北市文山區辛亥路四段247號","Tel":"02-89351381","Latitude":"25.0010924","Longitude":"121.5548898","MarkerImg":"chingshin.png"},{"BranchId":"204","Name":"台北市文山區(景文店)","Address":"台北市文山區景文街129號1樓","Tel":"02-29342121","Latitude":"24.990224","Longitude":"121.541183","MarkerImg":"chingshin.png"},{"BranchId":"205","Name":"台北市文山區(萬隆店)","Address":"台北市文山區羅斯福路5段190號","Tel":"02-29305939","Latitude":"25.0038494","Longitude":"121.5384361","MarkerImg":"chingshin.png"},{"BranchId":"206","Name":"台北市北投區(中央北店)","Address":"台北市北投區中央北路四段511號","Tel":"02-28910379","Latitude":"25.1281989","Longitude":"121.4685731","MarkerImg":"chingshin.png"},{"BranchId":"207","Name":"台北市北投區(中和店)","Address":"台北市北投區中和街331號","Tel":"02-28917784","Latitude":"25.140923","Longitude":"121.4997","MarkerImg":"chingshin.png"},{"BranchId":"208","Name":"台北市北投區(石牌店)","Address":"台北市北投區石牌路二段99巷57號","Tel":"02-28278806","Latitude":"25.1184265","Longitude":"121.5167932","MarkerImg":"chingshin.png"},{"BranchId":"209","Name":"台北市北投區(光明店)","Address":"台北市北投區光明路148號","Tel":"02-28978088","Latitude":"25.1343756","Longitude":"121.5024762","MarkerImg":"chingshin.png"},{"BranchId":"210","Name":"台北市北投區(明德店)","Address":"台北市北投區明德路172號","Tel":"02-28286161","Latitude":"25.111187","Longitude":"121.521254","MarkerImg":"chingshin.png"},{"BranchId":"211","Name":"台北市北投區(致遠店)","Address":"台北市北投區實踐街31號","Tel":"02-28223996","Latitude":"25.1151639","Longitude":"121.5084986","MarkerImg":"chingshin.png"},{"BranchId":"212","Name":"台北市松山區(八德店)","Address":"台北市松山區八德路四段48號","Tel":"02-27531966","Latitude":"25.0482116","Longitude":"121.559564","MarkerImg":"chingshin.png"},{"BranchId":"213","Name":"台北市松山區(民生東店)","Address":"台北市中山區遼寧街43號1F","Tel":"02-27733737","Latitude":"25.0487706","Longitude":"121.5421675","MarkerImg":"chingshin.png"},{"BranchId":"214","Name":"台北市松山區(延吉店)","Address":"台北市松山區延吉街2-4號","Tel":"02-25775296","Latitude":"25.047691","Longitude":"121.5531847","MarkerImg":"chingshin.png"},{"BranchId":"215","Name":"台北市松山區(東興店)","Address":"台北市松山區南京東路5段255號","Tel":"02-27629786","Latitude":"25.051603","Longitude":"121.565193","MarkerImg":"chingshin.png"},{"BranchId":"216","Name":"台北市松山區(饒河店)","Address":"台北市松山區八德路4段791號","Tel":"02-25288288","Latitude":"25.0501239","Longitude":"121.5780646","MarkerImg":"chingshin.png"},{"BranchId":"217","Name":"台北市信義區(中坡北店)","Address":"台北市信義區永吉路524號","Tel":"02-27475628","Latitude":"25.045216","Longitude":"121.580449","MarkerImg":"chingshin.png"},{"BranchId":"218","Name":"台北市信義區(五分埔店)","Address":"台北市信義區松山路158-1號","Tel":"02-27677158","Latitude":"25.046409","Longitude":"121.577593","MarkerImg":"chingshin.png"},{"BranchId":"219","Name":"台北市信義區(永吉店)","Address":"台北市信義區永吉路30巷73之2號(近市政府)","Tel":"02-27611525","Latitude":"25.0441822","Longitude":"121.5689308","MarkerImg":"chingshin.png"},{"BranchId":"220","Name":"台北市信義區(吳興店)","Address":"台北市信義區吳興街40號1樓","Tel":"02-23772478","Latitude":"25.0312474","Longitude":"121.5599408","MarkerImg":"chingshin.png"},{"BranchId":"221","Name":"台北市信義區(松山店)","Address":"台北市信義區松山路590號","Tel":"02-27593118","Latitude":"25.0366729","Longitude":"121.578274","MarkerImg":"chingshin.png"},{"BranchId":"222","Name":"台北市信義區(松仁店)","Address":"台北市信義區松仁路198號","Tel":"02-27587181","Latitude":"25.02739","Longitude":"121.568241","MarkerImg":"chingshin.png"},{"BranchId":"223","Name":"台北市信義區(莊敬店)","Address":"台北市信義區莊敬路325巷28號","Tel":"02-27585123","Latitude":"25.0283645","Longitude":"121.5641942","MarkerImg":"chingshin.png"},{"BranchId":"224","Name":"台北市南港區(中南店)","Address":"台北市南港區南港路一段154號","Tel":"02-26532371","Latitude":"25.0554694","Longitude":"121.6120141","MarkerImg":"chingshin.png"},{"BranchId":"225","Name":"台北市南港區(南港店)","Address":"台北市南港區南港路3段20號","Tel":"02-27882811","Latitude":"25.0544553","Longitude":"121.5925291","MarkerImg":"chingshin.png"},{"BranchId":"226","Name":"台北市萬華區(中華店)","Address":"台北市萬華區中華路二段307巷20號","Tel":"02-23091959","Latitude":"25.0290439","Longitude":"121.5058841","MarkerImg":"chingshin.png"},{"BranchId":"227","Name":"台北市萬華區(成都店)","Address":"台北市萬華區成都路30號","Tel":"02-23143280","Latitude":"25.042504","Longitude":"121.506627","MarkerImg":"chingshin.png"},{"BranchId":"228","Name":"台北市萬華區(昆明店)","Address":"台北市萬華區昆明街132號","Tel":"02-23111818","Latitude":"25.0432649","Longitude":"121.5047849","MarkerImg":"chingshin.png"},{"BranchId":"229","Name":"台北市萬華區(東園店)","Address":"台北市萬華區萬大路315號","Tel":"02-23016677","Latitude":"25.02453","Longitude":"121.500515","MarkerImg":"chingshin.png"},{"BranchId":"230","Name":"台北市萬華區(康定店)","Address":"台北市萬華區康定路322號","Tel":"02-23024378","Latitude":"25.0357596","Longitude":"121.501215","MarkerImg":"chingshin.png"},{"BranchId":"231","Name":"台北市萬華區(龍山店)","Address":"台北市萬華區廣州街217號","Tel":"02-23026069","Latitude":"25.0368006","Longitude":"121.499096","MarkerImg":"chingshin.png"},{"BranchId":"232","Name":"台北市萬華區(寶興店)","Address":"台北市萬華區寶興街94號","Tel":"02-23328618","Latitude":"25.0258429","Longitude":"121.4943126","MarkerImg":"chingshin.png"},{"BranchId":"233","Name":"台北市蘆洲市(中正店)","Address":"台北市蘆洲區中正路321號","Tel":"02-22881921","Latitude":"25.0886772","Longitude":"121.4661793","MarkerImg":"chingshin.png"},{"BranchId":"234","Name":"台東市中山路(中山店)","Address":"台東市中山路300號","Tel":"089-333513","Latitude":"22.7547624","Longitude":"121.1500572","MarkerImg":"chingshin.png"},{"BranchId":"235","Name":"台東市中華路(中華店)","Address":"台東市中華路一段108號","Tel":"089-330881","Latitude":"22.7589636","Longitude":"121.1576548","MarkerImg":"chingshin.png"},{"BranchId":"236","Name":"台東市正氣路(正氣店)","Address":"台東市正氣路483號","Tel":"089-361687","Latitude":"22.7572241","Longitude":"121.1442956","MarkerImg":"chingshin.png"},{"BranchId":"237","Name":"台東市更生路(更生店)","Address":"台東市更生路286號","Tel":"089-336603","Latitude":"22.7602927","Longitude":"121.1457301","MarkerImg":"chingshin.png"},{"BranchId":"238","Name":"台東縣綠島鄉(南寮店)","Address":"台東縣綠島鄉南寮村140號","Tel":"089-672279","Latitude":"22.6615479","Longitude":"121.4732249","MarkerImg":"chingshin.png"},{"BranchId":"239","Name":"台南市七股區(七股店)","Address":"台南市七股區七股村147號","Tel":"06-7875345","Latitude":"23.1195166","Longitude":"120.1011836","MarkerImg":"chingshin.png"},{"BranchId":"240","Name":"台南市下營區(下營店)","Address":"台南市下營區中山路一段60號","Tel":"06-6894211","Latitude":"23.2351368","Longitude":"120.2624945","MarkerImg":"chingshin.png"},{"BranchId":"241","Name":"台南市中區(永福店)","Address":"台南市永福路二段122號","Tel":"06-2296166","Latitude":"22.9934901","Longitude":"120.2012797","MarkerImg":"chingshin.png"},{"BranchId":"242","Name":"台南市仁德區(太子店)","Address":"台南市仁德區太子路180號","Tel":"06-2718166","Latitude":"22.991282","Longitude":"120.2621855","MarkerImg":"chingshin.png"},{"BranchId":"243","Name":"台南市仁德區(保安店)","Address":"台南市仁德區中正路一段216號","Tel":"06-2669196","Latitude":"22.9216246","Longitude":"120.235671","MarkerImg":"chingshin.png"},{"BranchId":"244","Name":"台南市仁德區(後壁店)","Address":"台南市仁德區新田村中正路二段474號","Tel":"06-2491835","Latitude":"22.9542193","Longitude":"120.2522808","MarkerImg":"chingshin.png"},{"BranchId":"245","Name":"台南市仁德區(嘉南店)","Address":"台南市仁德區二行一路155號","Tel":"06-3661086","Latitude":"22.9204697","Longitude":"120.2247267","MarkerImg":"chingshin.png"},{"BranchId":"246","Name":"台南市六甲區(六甲店)","Address":"台南市六甲區中正路486號","Tel":"06-6995496","Latitude":"22.9867952","Longitude":"120.2588606","MarkerImg":"chingshin.png"},{"BranchId":"247","Name":"台南市北區(大興店)","Address":"台南市北區中華北路一段136號","Tel":"06-3501698","Latitude":"23.0101355","Longitude":"120.1854609","MarkerImg":"chingshin.png"},{"BranchId":"248","Name":"台南市北區(小北店)","Address":"台南市北區西門路四段275號","Tel":"06-2518628","Latitude":"23.0133266","Longitude":"120.2091223","MarkerImg":"chingshin.png"},{"BranchId":"249","Name":"台南市北區(公園南店)","Address":"台南市北區公園南路259號","Tel":"06-2203718","Latitude":"23.0016487","Longitude":"120.2061009","MarkerImg":"chingshin.png"},{"BranchId":"250","Name":"台南市北區(文成店)","Address":"台南市北區文賢三街128號","Tel":"06-3581886","Latitude":"23.0125406","Longitude":"120.1984318","MarkerImg":"chingshin.png"},{"BranchId":"251","Name":"台南市北區(北園店)","Address":"台南市北區北園街55號","Tel":"06-2357357","Latitude":"23.0097661","Longitude":"120.2231192","MarkerImg":"chingshin.png"},{"BranchId":"252","Name":"台南市北區(育德總店)","Address":"台南市北區育德路520號","Tel":"06-2519686","Latitude":"23.0148099","Longitude":"120.2068054","MarkerImg":"chingshin.png"},{"BranchId":"253","Name":"台南市北區(延平店)","Address":"台南市東區長榮路五段416號","Tel":"06-2821596","Latitude":"23.0132963","Longitude":"120.2143021","MarkerImg":"chingshin.png"},{"BranchId":"254","Name":"台南市北區(武聖店)","Address":"台南市北區武聖路28號","Tel":"06-3580676","Latitude":"23.0054228","Longitude":"120.1925254","MarkerImg":"chingshin.png"},{"BranchId":"255","Name":"台南市北區(開元店)","Address":"台南市北區開元路186號","Tel":"06-2085196","Latitude":"23.0072164","Longitude":"120.2202288","MarkerImg":"chingshin.png"},{"BranchId":"256","Name":"台南市北區(新公園店)","Address":"台南市北區公園路822-1號","Tel":"06-2515816","Latitude":"23.0122041","Longitude":"120.2114447","MarkerImg":"chingshin.png"},{"BranchId":"257","Name":"台南市永康區(二王店)","Address":"台南市永康區文化路241號","Tel":"06-2334996","Latitude":"23.0149196","Longitude":"120.25481","MarkerImg":"chingshin.png"},{"BranchId":"258","Name":"台南市永康區(大武店)","Address":"台南市永康區大武街22號","Tel":"06-2525453","Latitude":"23.0197469","Longitude":"120.2225731","MarkerImg":"chingshin.png"},{"BranchId":"259","Name":"台南市永康區(大灣店)","Address":"台南市永康區大灣路337號","Tel":"06-2732876","Latitude":"23.0043014","Longitude":"120.2661697","MarkerImg":"chingshin.png"},{"BranchId":"260","Name":"台南市永康區(中華店)","Address":"台南市永康區中華路433號","Tel":"06-3025535","Latitude":"23.0102145","Longitude":"120.2325817","MarkerImg":"chingshin.png"},{"BranchId":"261","Name":"台南市永康區(永安店)","Address":"台南市永康區永安路133號","Tel":"06-2433777","Latitude":"23.0447105","Longitude":"120.2449316","MarkerImg":"chingshin.png"},{"BranchId":"262","Name":"台南市永康區(永康店)","Address":"台南市永康區中山路107號","Tel":"06-2316211","Latitude":"23.0302822","Longitude":"120.2560329","MarkerImg":"chingshin.png"},{"BranchId":"263","Name":"台南市永康區(南工店)","Address":"台南市永康區中山南路207號","Tel":"06-2013666","Latitude":"23.0134718","Longitude":"120.2306753","MarkerImg":"chingshin.png"},{"BranchId":"264","Name":"台南市永康區(崑山店)","Address":"台南市永康區大仁街75號","Tel":"06-2720616","Latitude":"23.0021864","Longitude":"120.2567513","MarkerImg":"chingshin.png"},{"BranchId":"265","Name":"台南市永康區(復國二店)","Address":"台南市永康區復國一路576號","Tel":"06-2329678","Latitude":"23.0167739","Longitude":"120.2435362","MarkerImg":"chingshin.png"},{"BranchId":"266","Name":"台南市永康區(復國店)","Address":"台南市永康區復國一路332之1號","Tel":"06-2317826","Latitude":"23.0105891","Longitude":"120.2465089","MarkerImg":"chingshin.png"},{"BranchId":"267","Name":"台南市永康區(歐洲店)","Address":"台南市永康區中正路218號","Tel":"06-2041787","Latitude":"23.0308266","Longitude":"120.2519861","MarkerImg":"chingshin.png"},{"BranchId":"268","Name":"台南市永康區(蔦菘店)","Address":"台南市永康區中正北路425號","Tel":"06-2547366","Latitude":"23.0422171","Longitude":"120.2543617","MarkerImg":"chingshin.png"},{"BranchId":"269","Name":"台南市永康區(鹽行店)","Address":"台南市永康區中正路505號","Tel":"06-2542826","Latitude":"23.0376332","Longitude":"120.241111","MarkerImg":"chingshin.png"},{"BranchId":"270","Name":"台南市玉井區(玉井店)","Address":"台南市玉井區中華路245號","Tel":"06-5741668","Latitude":"23.1181703","Longitude":"120.4685445","MarkerImg":"chingshin.png"},{"BranchId":"271","Name":"台南市安平區(五期店)","Address":"台南市平通路508號","Tel":"06-2989211","Latitude":"22.9935466","Longitude":"120.1722069","MarkerImg":"chingshin.png"},{"BranchId":"272","Name":"台南市安平區(安平店)","Address":"台南市安平區安北路6號","Tel":"06-2412986","Latitude":"22.9993754","Longitude":"120.1679473","MarkerImg":"chingshin.png"},{"BranchId":"273","Name":"台南市安定區(港口店)","Address":"台南市安定區港南村145-1號","Tel":"06-5931526","Latitude":"23.095298","Longitude":"120.2166519","MarkerImg":"chingshin.png"},{"BranchId":"274","Name":"台南市安南區(大安店)","Address":"台南市安南區大安街63號","Tel":"06-2453678","Latitude":"23.0317095","Longitude":"120.1921305","MarkerImg":"chingshin.png"},{"BranchId":"275","Name":"台南市安南區(安中店)","Address":"台南市安中路四段32號","Tel":"06-2557826","Latitude":"23.0502759","Longitude":"120.1728346","MarkerImg":"chingshin.png"},{"BranchId":"276","Name":"台南市安南區(安和店)","Address":"台南市安和路四段560號","Tel":"06-3560786","Latitude":"23.0621187","Longitude":"120.218757","MarkerImg":"chingshin.png"},{"BranchId":"277","Name":"台南市安南區(安順店)","Address":"台南市安南區安和路一段273號","Tel":"06-2562881","Latitude":"23.031978","Longitude":"120.212506","MarkerImg":"chingshin.png"},{"BranchId":"278","Name":"台南市安南區(海佃直營店)","Address":"台南市安南區海佃路二段373號","Tel":"06-2560928","Latitude":"23.0393822","Longitude":"120.1876731","MarkerImg":"chingshin.png"},{"BranchId":"279","Name":"台南市安南區(國安店)","Address":"台南市安南區國安街29號","Tel":"06-3587916","Latitude":"23.0225951","Longitude":"120.1907941","MarkerImg":"chingshin.png"},{"BranchId":"280","Name":"台南市西區(民權店)","Address":"台南市中西區民權路三段33號","Tel":"06-2215311","Latitude":"22.9963169","Longitude":"120.1986747","MarkerImg":"chingshin.png"},{"BranchId":"281","Name":"台南市西港區(西港店)","Address":"台南市西港區慶安村新興街18號","Tel":"06-7953070","Latitude":"23.1257853","Longitude":"120.1993381","MarkerImg":"chingshin.png"},{"BranchId":"282","Name":"台南市佳里區(佳里興店)","Address":"台南市佳里區興化里佳里興545-23號","Tel":"06-7265009","Latitude":"23.1882089","Longitude":"120.1870446","MarkerImg":"chingshin.png"},{"BranchId":"283","Name":"台南市佳里區(延平店)","Address":"台南市佳里區延平路20號","Tel":"06-7217077","Latitude":"23.1541893","Longitude":"120.1796578","MarkerImg":"chingshin.png"},{"BranchId":"284","Name":"台南市東山區(達雲店)","Address":"台南市東山區達雲路一段13號","Tel":"06-6803732","Latitude":"23.3224859","Longitude":"120.4035514","MarkerImg":"chingshin.png"},{"BranchId":"285","Name":"台南市東區(仁和店)","Address":"台南市東區仁和路118-1號","Tel":"06-2680189","Latitude":"22.9713052","Longitude":"120.233009","MarkerImg":"chingshin.png"},{"BranchId":"286","Name":"台南市東區(光明店)","Address":"台南市東區光明街73號","Tel":"06-2008276","Latitude":"22.999055","Longitude":"120.2283122","MarkerImg":"chingshin.png"},{"BranchId":"287","Name":"台南市東區(東門店)","Address":"台南市東門路一段178號","Tel":"06-2383186","Latitude":"22.9875197","Longitude":"120.2155337","MarkerImg":"chingshin.png"},{"BranchId":"288","Name":"台南市東區(崇德店)","Address":"台南市東區崇德路479號","Tel":"06-2681938","Latitude":"22.9745962","Longitude":"120.2267867","MarkerImg":"chingshin.png"},{"BranchId":"289","Name":"台南市東區(富農店)","Address":"台南市富農街二段35號","Tel":"06-2677208","Latitude":"22.9860545","Longitude":"120.2355608","MarkerImg":"chingshin.png"},{"BranchId":"290","Name":"台南市東區(新東寧店)","Address":"台南市東區東寧路322號","Tel":"06-2752388","Latitude":"22.9901015","Longitude":"120.2272682","MarkerImg":"chingshin.png"},{"BranchId":"291","Name":"台南市東區(裕信店)","Address":"台南市東區裕信路368號","Tel":"06-3317966","Latitude":"22.9793351","Longitude":"120.244944","MarkerImg":"chingshin.png"},{"BranchId":"292","Name":"台南市東區(裕農店)","Address":"台南市東區裕農路36號","Tel":"06-2762186","Latitude":"22.985152","Longitude":"120.2253486","MarkerImg":"chingshin.png"},{"BranchId":"293","Name":"台南市東區(榮譽店)","Address":"台南市榮譽街92號1樓","Tel":"06-2693125","Latitude":"22.974794","Longitude":"120.2176365","MarkerImg":"chingshin.png"},{"BranchId":"294","Name":"台南市南區(大同店)","Address":"台南市大同路二段122號","Tel":"06-2141661","Latitude":"22.9795084","Longitude":"120.212681","MarkerImg":"chingshin.png"},{"BranchId":"295","Name":"台南市南區(文南店)","Address":"台南市南區文南路331號","Tel":"06-2612866","Latitude":"22.9876954","Longitude":"120.1900657","MarkerImg":"chingshin.png"},{"BranchId":"296","Name":"台南市南區(金華總店)","Address":"台南市南區金華路二段15巷25號","Tel":"06-2658812","Latitude":"22.9761336","Longitude":"120.1898856","MarkerImg":"chingshin.png"},{"BranchId":"297","Name":"台南市南區(夏林店)","Address":"台南市南區夏林路1-31號","Tel":"06-2410566","Latitude":"22.9857723","Longitude":"120.1950525","MarkerImg":"chingshin.png"},{"BranchId":"298","Name":"台南市南區(國民店)","Address":"台南市國民路89號","Tel":"06-2683398","Latitude":"22.9672663","Longitude":"120.2136571","MarkerImg":"chingshin.png"},{"BranchId":"299","Name":"台南市南區(灣裡店)","Address":"台南市灣裡路281號","Tel":"06-2621382","Latitude":"22.9270488","Longitude":"120.182105","MarkerImg":"chingshin.png"},{"BranchId":"300","Name":"台南市柳營區(柳營店)","Address":"台南市柳營區東昇村542之1號","Tel":"06-6220688","Latitude":"23.2806957","Longitude":"120.3550808","MarkerImg":"chingshin.png"},{"BranchId":"301","Name":"台南市將軍區(將軍店)","Address":"台南市將軍區長榮里21-1號","Tel":"06-7942598","Latitude":"23.1900666","Longitude":"120.161817","MarkerImg":"chingshin.png"},{"BranchId":"302","Name":"台南市麻豆區(麻豆中山)","Address":"台南市麻豆區中山路127號","Tel":"06-5715903","Latitude":"23.1835169","Longitude":"120.2451979","MarkerImg":"chingshin.png"},{"BranchId":"303","Name":"台南市麻豆區(興中店)","Address":"台南市麻豆區興中路186之3號","Tel":"06-5725091","Latitude":"23.1835513","Longitude":"120.254659","MarkerImg":"chingshin.png"},{"BranchId":"304","Name":"台南市善化區(善化二)","Address":"台南市善化區中山路208-2號","Tel":"06-5831133","Latitude":"23.1325952","Longitude":"120.2995744","MarkerImg":"chingshin.png"},{"BranchId":"305","Name":"台南市善化區(善化店)","Address":"台南市善化區中山路329號","Tel":"06-5852883","Latitude":"23.13205","Longitude":"120.2948183","MarkerImg":"chingshin.png"},{"BranchId":"306","Name":"台南市新化區(那拔林店)","Address":"台南市新化區那拔林56-2號","Tel":"06-5912618","Latitude":"23.0679886","Longitude":"120.3499923","MarkerImg":"chingshin.png"},{"BranchId":"307","Name":"台南市新化區(新化中山)","Address":"台南市新化區中山路471號","Tel":"06-5801667","Latitude":"23.0357322","Longitude":"120.3035193","MarkerImg":"chingshin.png"},{"BranchId":"308","Name":"台南市新化區(新化店)","Address":"台南市新化區信義路195號","Tel":"06-5908166","Latitude":"23.0350473","Longitude":"120.3089381","MarkerImg":"chingshin.png"},{"BranchId":"309","Name":"台南市新化區(新化忠孝)","Address":"台南市新化區忠孝路43-1號","Tel":"06-5906188","Latitude":"23.0384246","Longitude":"120.3076434","MarkerImg":"chingshin.png"},{"BranchId":"310","Name":"台南市新化區(遠東店)","Address":"台南市新化區中正路1201號","Tel":"06-5981666","Latitude":"23.059364","Longitude":"120.2967796","MarkerImg":"chingshin.png"},{"BranchId":"311","Name":"台南市新市區(民生店)","Address":"台南市新市區民生路5號","Tel":"06-5899688","Latitude":"23.0783388","Longitude":"120.2912441","MarkerImg":"chingshin.png"},{"BranchId":"312","Name":"台南市新市區(新市店)","Address":"台南市新市區華興街22號","Tel":"06-5890505","Latitude":"23.0771573","Longitude":"120.2951889","MarkerImg":"chingshin.png"},{"BranchId":"313","Name":"台南市新營區(新進店)","Address":"台南市新營區新進路327號","Tel":"06-6378520","Latitude":"23.300907","Longitude":"120.3145883","MarkerImg":"chingshin.png"},{"BranchId":"314","Name":"台南市新營區(新營二店)","Address":"台南市新營區中正路50-1號","Tel":"06-6356111","Latitude":"23.3115628","Longitude":"120.3168308","MarkerImg":"chingshin.png"},{"BranchId":"315","Name":"台南市新營區(新營店)","Address":"台南市新營區復興路82號","Tel":"06-6372313","Latitude":"23.3033682","Longitude":"120.3111755","MarkerImg":"chingshin.png"},{"BranchId":"316","Name":"台南市學甲區(學甲店)","Address":"台南市學甲區華宗路410號","Tel":"06-7830762","Latitude":"23.233417","Longitude":"120.182484","MarkerImg":"chingshin.png"},{"BranchId":"317","Name":"台南市歸仁區(歸仁店)","Address":"台南市民權南路179號","Tel":"06-2395372","Latitude":"22.9642961","Longitude":"120.2877722","MarkerImg":"chingshin.png"},{"BranchId":"318","Name":"台南市關廟區(關二店)","Address":"台南市關廟區南雄路一段1165號","Tel":"06-5966600","Latitude":"22.9508152","Longitude":"120.3314785","MarkerImg":"chingshin.png"},{"BranchId":"319","Name":"台南市關廟區(關廟店)","Address":"台南市關廟區南雄路二段178號","Tel":"06-5950311","Latitude":"22.9625061","Longitude":"120.3284437","MarkerImg":"chingshin.png"},{"BranchId":"320","Name":"台南市鹽水區(鹽水二店)","Address":"台南市鹽水區忠孝路25號","Tel":"06-6533663","Latitude":"23.3104783","Longitude":"120.2759241","MarkerImg":"chingshin.png"},{"BranchId":"321","Name":"台南市鹽水區(鹽水店)","Address":"台南市鹽水區朝琴路130-10號","Tel":"06-6523636","Latitude":"23.3227238","Longitude":"120.2714971","MarkerImg":"chingshin.png"},{"BranchId":"322","Name":"宜蘭市復興路(復興店)","Address":"宜蘭市復興路二段8號","Tel":"03-9331517","Latitude":"24.748644","Longitude":"121.74971","MarkerImg":"chingshin.png"},{"BranchId":"323","Name":"宜蘭市進士路(進士店)","Address":"宜蘭市進士路110號","Tel":"03-9360661","Latitude":"24.7445674","Longitude":"121.7483326","MarkerImg":"chingshin.png"},{"BranchId":"324","Name":"宜蘭市舊城南路(舊城南店)","Address":"宜蘭市舊城南路38號","Tel":"03-9330763","Latitude":"24.754522","Longitude":"121.752782","MarkerImg":"chingshin.png"},{"BranchId":"325","Name":"宜蘭縣宜蘭市(中山店)","Address":"宜蘭市中山路三段167號","Tel":"03-9361661","Latitude":"24.759772","Longitude":"121.7529941","MarkerImg":"chingshin.png"},{"BranchId":"326","Name":"宜蘭縣宜蘭市(東港店)","Address":"宜蘭市東港路48-1號","Tel":"03-9382566","Latitude":"24.7552938","Longitude":"121.7625396","MarkerImg":"chingshin.png"},{"BranchId":"327","Name":"宜蘭縣三星鄉(三星店)","Address":"宜蘭縣三星鄉三星路四段458號","Tel":"03-9892988","Latitude":"24.6665664","Longitude":"121.6534217","MarkerImg":"chingshin.png"},{"BranchId":"328","Name":"宜蘭縣五結鄉(五結店)","Address":"宜蘭縣五結鄉五結路二段516號","Tel":"03-9600699","Latitude":"24.684575","Longitude":"121.7954394","MarkerImg":"chingshin.png"},{"BranchId":"329","Name":"宜蘭縣五結鄉(利成店)","Address":"宜蘭縣五結鄉利成路一段26號","Tel":"03-9500150","Latitude":"24.6487463","Longitude":"121.8281812","MarkerImg":"chingshin.png"},{"BranchId":"330","Name":"宜蘭縣冬山鄉(冬山店)","Address":"宜蘭縣冬山鄉冬山路一段1058號","Tel":"03-9593177","Latitude":"24.6339985","Longitude":"121.790124","MarkerImg":"chingshin.png"},{"BranchId":"331","Name":"宜蘭縣員山鄉(員山店)","Address":"宜蘭縣員山鄉員山路一段156號","Tel":"03-9221816","Latitude":"24.7463156","Longitude":"121.727874","MarkerImg":"chingshin.png"},{"BranchId":"332","Name":"宜蘭縣頭城鎮(青雲店)","Address":"宜蘭縣頭城鎮青雲路三段50號","Tel":"03-9777230","Latitude":"24.8552641","Longitude":"121.823576","MarkerImg":"chingshin.png"},{"BranchId":"333","Name":"宜蘭縣礁溪鄉(中山店)","Address":"宜蘭縣礁溪鄉中山路二段180號","Tel":"03-9888998","Latitude":"24.8269423","Longitude":"121.7740725","MarkerImg":"chingshin.png"},{"BranchId":"334","Name":"宜蘭縣礁溪鄉(礁溪店)","Address":"宜蘭縣礁溪鄉礁溪路5段2號","Tel":"03-9886369","Latitude":"24.8243121","Longitude":"121.770889","MarkerImg":"chingshin.png"},{"BranchId":"335","Name":"宜蘭縣羅東鎮(中正南店)","Address":"宜蘭縣羅東鎮中正南路133號","Tel":"03-9531222","Latitude":"24.6710705","Longitude":"121.7707109","MarkerImg":"chingshin.png"},{"BranchId":"336","Name":"宜蘭縣羅東鎮(公正店)","Address":"宜蘭縣羅東鎮公正路335號","Tel":"03-9515177","Latitude":"24.6802783","Longitude":"121.7622276","MarkerImg":"chingshin.png"},{"BranchId":"337","Name":"宜蘭縣羅東鎮(倉前店)","Address":"宜蘭縣羅東鎮倉前路62-1號","Tel":"03-9571235","Latitude":"24.681192","Longitude":"121.769112","MarkerImg":"chingshin.png"},{"BranchId":"338","Name":"宜蘭縣羅東鎮(站前店)","Address":"宜蘭縣羅東鎮公正路69號","Tel":"03-9577322","Latitude":"24.6779524","Longitude":"121.7722886","MarkerImg":"chingshin.png"},{"BranchId":"339","Name":"宜蘭縣羅東鎮(維揚店)","Address":"宜蘭縣羅東鎮維揚路72號","Tel":"03-9515799","Latitude":"24.672272","Longitude":"121.761462","MarkerImg":"chingshin.png"},{"BranchId":"340","Name":"宜蘭縣羅東鎮(興東二店)","Address":"宜蘭縣羅東鎮興東路10-2號","Tel":"03-9575889","Latitude":"24.6778636","Longitude":"121.7685401","MarkerImg":"chingshin.png"},{"BranchId":"341","Name":"宜蘭縣羅東鎮(興東店)","Address":"宜蘭縣羅東鎮中山路三段219號","Tel":"03-9573292","Latitude":"24.6751745","Longitude":"121.7686537","MarkerImg":"chingshin.png"},{"BranchId":"342","Name":"宜蘭縣蘇澳鎮(中山店)","Address":"宜蘭縣蘇澳鎮中山路一段151號","Tel":"03-9952998","Latitude":"24.5957997","Longitude":"121.8477558","MarkerImg":"chingshin.png"},{"BranchId":"343","Name":"宜蘭縣蘇澳鎮(江夏店)","Address":"宜蘭縣蘇澳鎮江夏路75號","Tel":"03-9961646","Latitude":"24.583185","Longitude":"121.864746","MarkerImg":"chingshin.png"},{"BranchId":"344","Name":"花蓮市中山路(中山店)","Address":"花蓮市中山路570號","Tel":"03-8577963","Latitude":"23.9923751","Longitude":"121.597594","MarkerImg":"chingshin.png"},{"BranchId":"345","Name":"花蓮市中央路(中央店)","Address":"花蓮市中央路三段798號","Tel":"03-8465288","Latitude":"23.9924815","Longitude":"121.5915833","MarkerImg":"chingshin.png"},{"BranchId":"346","Name":"花蓮市中美路(中美店)","Address":"花蓮市中美路151號","Tel":"03-8222993","Latitude":"23.9944307","Longitude":"121.62822","MarkerImg":"chingshin.png"},{"BranchId":"347","Name":"花蓮市中華路(中華店)","Address":"花蓮市中華路116號","Tel":"03-8353959","Latitude":"23.9760105","Longitude":"121.6057227","MarkerImg":"chingshin.png"},{"BranchId":"348","Name":"花蓮市商校街(商校店)","Address":"花蓮市商校街188號","Tel":"03-8325122","Latitude":"23.9871045","Longitude":"121.6009574","MarkerImg":"chingshin.png"},{"BranchId":"349","Name":"花蓮市華西(華西店)","Address":"花蓮市華西117-3號","Tel":"03-8222997","Latitude":"24.0118209","Longitude":"121.6193714","MarkerImg":"chingshin.png"},{"BranchId":"350","Name":"花蓮市新港路(新港店)","Address":"花蓮市新港街67號","Tel":"038-325218","Latitude":"23.9791172","Longitude":"121.6065891","MarkerImg":"chingshin.png"},{"BranchId":"351","Name":"花蓮市吉安鄉(花濃店)","Address":"花蓮縣吉安鄉建國路一段53之1號","Tel":"03-8576667","Latitude":"23.9849072","Longitude":"121.5949255","MarkerImg":"chingshin.png"},{"BranchId":"352","Name":"花蓮縣玉里鎮(中山店)","Address":"花蓮縣玉里鎮中山路2段66號","Tel":"03-8882829","Latitude":"23.3332729","Longitude":"121.3150754","MarkerImg":"chingshin.png"},{"BranchId":"353","Name":"花蓮縣吉安鄉(中正店)","Address":"花蓮縣吉安鄉中正路一段104號","Tel":"03-8526120","Latitude":"23.9662789","Longitude":"121.5918455","MarkerImg":"chingshin.png"},{"BranchId":"354","Name":"花蓮縣吉安鄉(中華店)","Address":"花蓮縣吉安鄉中華路二段229號","Tel":"03-8522719","Latitude":"23.9732716","Longitude":"121.5802788","MarkerImg":"chingshin.png"},{"BranchId":"355","Name":"花蓮縣新城鄉(北埔店)","Address":"花蓮縣新城鄉北埔村民有街275號","Tel":"03-8269806","Latitude":"24.034897","Longitude":"121.606409","MarkerImg":"chingshin.png"},{"BranchId":"356","Name":"花蓮縣壽豐鄉(中山店)","Address":"花蓮縣壽豐鄉中山路二段218號","Tel":"03-8664466","Latitude":"23.9730547","Longitude":"121.579524","MarkerImg":"chingshin.png"},{"BranchId":"357","Name":"金門縣金城鎮(金門店)","Address":"金門縣金城鎮民生路37-3號","Tel":"08-2375113","Latitude":"24.4352271","Longitude":"118.3192384","MarkerImg":"chingshin.png"},{"BranchId":"358","Name":"金門縣金湖鎮(山外店)","Address":"金門縣金湖鎮山外里黃海路9號","Tel":"082-332238","Latitude":"24.4429007","Longitude":"118.4147311","MarkerImg":"chingshin.png"},{"BranchId":"359","Name":"南投中山街(中山店)","Address":"南投市中山街228號","Tel":"049-2221317","Latitude":"23.9103116","Longitude":"120.6849713","MarkerImg":"chingshin.png"},{"BranchId":"360","Name":"南投市中正路(中正店)","Address":"南投市中正路222-1號","Tel":"049-2370589","Latitude":"23.9458235","Longitude":"120.6939275","MarkerImg":"chingshin.png"},{"BranchId":"361","Name":"南投市南崗一路(中興店)","Address":"南投市南崗一路13號","Tel":"049-2226630","Latitude":"23.8998593","Longitude":"120.6846306","MarkerImg":"chingshin.png"},{"BranchId":"362","Name":"南投市南崗二路(南崗店)","Address":"南投市南崗二路321號","Tel":"049-2225532","Latitude":"23.9136057","Longitude":"120.6775007","MarkerImg":"chingshin.png"},{"BranchId":"363","Name":"南投市南陽路(南陽店)","Address":"南投市南陽路82號","Tel":"049-2205358","Latitude":"23.9098218","Longitude":"120.6894057","MarkerImg":"chingshin.png"},{"BranchId":"364","Name":"南投市彰南路(彰南店)","Address":"南投市彰南路一段1112號","Tel":"049-2235318","Latitude":"23.9065796","Longitude":"120.6854242","MarkerImg":"chingshin.png"},{"BranchId":"365","Name":"南投縣水里鄉(中山店)","Address":"南投縣水里鄉中山路一段276號","Tel":"049-2871122","Latitude":"23.807218","Longitude":"120.8532796","MarkerImg":"chingshin.png"},{"BranchId":"366","Name":"南投縣水里鄉(民生店)","Address":"南投縣水里鄉民生路353號","Tel":"049-2871991","Latitude":"23.8175757","Longitude":"120.8537491","MarkerImg":"chingshin.png"},{"BranchId":"367","Name":"南投縣名間鄉(南雅店)","Address":"南投縣名間鄉南雅路街84號","Tel":"049-2736068","Latitude":"23.8359295","Longitude":"120.7020557","MarkerImg":"chingshin.png"},{"BranchId":"368","Name":"南投縣竹山鎮(社寮店)","Address":"南投縣竹山鎮集山路一段2071號","Tel":"049-2622138","Latitude":"23.804289","Longitude":"120.7153476","MarkerImg":"chingshin.png"},{"BranchId":"369","Name":"南投縣竹山鎮(集山二店)","Address":"南投縣竹山鎮集山路3段403號","Tel":"049-2659139","Latitude":"23.7619163","Longitude":"120.6961898","MarkerImg":"chingshin.png"},{"BranchId":"370","Name":"南投縣竹山鎮(集山店)","Address":"南投縣竹山鎮集山路三段906號","Tel":"049-2635221","Latitude":"23.7579625","Longitude":"120.6844286","MarkerImg":"chingshin.png"},{"BranchId":"371","Name":"南投縣埔里鎮(中正店)","Address":"南投縣埔里鎮中正路448號","Tel":"049-2993156","Latitude":"23.9662016","Longitude":"120.9662155","MarkerImg":"chingshin.png"},{"BranchId":"372","Name":"南投縣埔里鎮(忠孝店)","Address":"南投縣埔里鎮忠孝路182號","Tel":"049-2995339","Latitude":"23.9635927","Longitude":"120.9711757","MarkerImg":"chingshin.png"},{"BranchId":"373","Name":"南投縣埔里鎮(南盛店)","Address":"南投縣埔里鎮中山路二段163號","Tel":"049-2990186","Latitude":"23.968349","Longitude":"120.9713224","MarkerImg":"chingshin.png"},{"BranchId":"374","Name":"南投縣草屯鎮(中正店)","Address":"南投縣草屯鎮中正路618號","Tel":"049-2333886","Latitude":"23.9791119","Longitude":"120.685492","MarkerImg":"chingshin.png"},{"BranchId":"375","Name":"南投縣草屯鎮(育英店)","Address":"南投縣草屯鎮虎山路740號","Tel":"049-2327011","Latitude":"23.9750635","Longitude":"120.6859144","MarkerImg":"chingshin.png"},{"BranchId":"376","Name":"南投縣草屯鎮(芬草店)","Address":"南投縣草屯鎮芬草路一段7號","Tel":"049-2367586","Latitude":"23.9820169","Longitude":"120.6844659","MarkerImg":"chingshin.png"},{"BranchId":"377","Name":"南投縣草屯鎮(虎山店)","Address":"南投縣草屯鎮虎山路508號","Tel":"049-2312181","Latitude":"23.9688973","Longitude":"120.6871868","MarkerImg":"chingshin.png"},{"BranchId":"378","Name":"南投縣草屯鎮(南開店)","Address":"南投縣草屯鎮中正路557-39號","Tel":"049-2568568","Latitude":"23.9789267","Longitude":"120.6960013","MarkerImg":"chingshin.png"},{"BranchId":"379","Name":"南投縣草屯鎮(碧山南店)","Address":"南投縣草屯鎮碧山南路9號","Tel":"049-2301088","Latitude":"23.9779411","Longitude":"120.6813729","MarkerImg":"chingshin.png"},{"BranchId":"380","Name":"南投縣魚池鄉(中興店)","Address":"南投縣魚池鄉水社村中興路39號1樓","Tel":"049-2856768","Latitude":"23.8654289","Longitude":"120.9113129","MarkerImg":"chingshin.png"},{"BranchId":"381","Name":"南投縣集集鎮(民生店)","Address":"南投縣集集鎮民生路192號","Tel":"049-2760999","Latitude":"23.8269759","Longitude":"120.7842028","MarkerImg":"chingshin.png"},{"BranchId":"382","Name":"屏東市大武路(大武店)","Address":"屏東市大武路32號","Tel":"08-7561211","Latitude":"22.6563973","Longitude":"120.4781454","MarkerImg":"chingshin.png"},{"BranchId":"383","Name":"屏東市民生路(民生店)","Address":"屏東市民生路10號","Tel":"08-7215028","Latitude":"22.6652539","Longitude":"120.5021399","MarkerImg":"chingshin.png"},{"BranchId":"384","Name":"屏東市民族路(民族店)","Address":"屏東市民族路60號","Tel":"08-7652911","Latitude":"22.670076","Longitude":"120.488817","MarkerImg":"chingshin.png"},{"BranchId":"385","Name":"屏東市忠孝路(忠孝店)","Address":"屏東市忠孝路279號","Tel":"08-7331966","Latitude":"22.6894938","Longitude":"120.4887509","MarkerImg":"chingshin.png"},{"BranchId":"386","Name":"屏東市林森路(林森二店)","Address":"屏東市橋北里廣東路51號","Tel":"08-7220688","Latitude":"22.6708381","Longitude":"120.4987657","MarkerImg":"chingshin.png"},{"BranchId":"387","Name":"屏東市勝利路(勝利店)","Address":"屏東市勝利路196-3號","Tel":"08-7652296","Latitude":"22.6791349","Longitude":"120.48011","MarkerImg":"chingshin.png"},{"BranchId":"388","Name":"屏東市廣東路(廣東店)","Address":"屏東市廣東路595號","Tel":"08-7380311","Latitude":"22.6841934","Longitude":"120.4973744","MarkerImg":"chingshin.png"},{"BranchId":"389","Name":"屏東縣長治鄉(中興店)","Address":"屏東市大連路7之26號","Tel":"08-7386399","Latitude":"22.6835833","Longitude":"120.5075826","MarkerImg":"chingshin.png"},{"BranchId":"390","Name":"屏東縣屏東市(龍華店)","Address":"屏東市龍華路182號","Tel":"08-7528858","Latitude":"22.6355558","Longitude":"120.4821438","MarkerImg":"chingshin.png"},{"BranchId":"391","Name":"屏東縣九如鄉(九如店)","Address":"屏東縣九如鄉九如路2段235之2號","Tel":"08-7393988","Latitude":"22.7355289","Longitude":"120.489133","MarkerImg":"chingshin.png"},{"BranchId":"392","Name":"屏東縣內埔鄉(廣濟店)","Address":"屏東縣內埔鄉廣濟路96號","Tel":"08-7690881","Latitude":"22.614257","Longitude":"120.56652","MarkerImg":"chingshin.png"},{"BranchId":"393","Name":"屏東縣內埔鄉(龍泉店)","Address":"屏東縣內埔鄉原勝路227號","Tel":"08-7600066","Latitude":"22.6669374","Longitude":"120.5999139","MarkerImg":"chingshin.png"},{"BranchId":"394","Name":"屏東縣車城鄉(中山店)","Address":"屏東縣車城鄉中山路5之2號","Tel":"08-8824316","Latitude":"22.070235","Longitude":"120.714061","MarkerImg":"chingshin.png"},{"BranchId":"395","Name":"屏東縣里港鄉(玉田店)","Address":"屏東縣里港鄉玉田路67-5號","Tel":"08-7721711","Latitude":"22.7764137","Longitude":"120.491181","MarkerImg":"chingshin.png"},{"BranchId":"396","Name":"屏東縣佳冬鄉(佳冬店)","Address":"屏東縣佳冬鄉中山路84號","Tel":"08-8661495","Latitude":"22.4303924","Longitude":"120.562976","MarkerImg":"chingshin.png"},{"BranchId":"397","Name":"屏東縣枋寮鄉(中山店)","Address":"屏東縣枋寮鄉中山路236號","Tel":"08-8787656","Latitude":"22.3676464","Longitude":"120.5940419","MarkerImg":"chingshin.png"},{"BranchId":"398","Name":"屏東縣枋寮鄉(水底寮店)","Address":"屏東縣枋寮鄉中山路二段238之3號","Tel":"08-8711111","Latitude":"22.384896","Longitude":"120.5952904","MarkerImg":"chingshin.png"},{"BranchId":"399","Name":"屏東縣東港鎮(中正店)","Address":"屏東縣東港鎮長春一路65號","Tel":"08-8353626","Latitude":"22.4722988","Longitude":"120.4587833","MarkerImg":"chingshin.png"},{"BranchId":"400","Name":"屏東縣東港鎮(東港店)","Address":"屏東縣東港鎮中山路83號","Tel":"08-8327996","Latitude":"22.4670829","Longitude":"120.4493057","MarkerImg":"chingshin.png"},{"BranchId":"401","Name":"屏東縣林邊鄉(林邊店)","Address":"屏東縣林邊鄉中山路203號","Tel":"08-8754681","Latitude":"22.433423","Longitude":"120.516161","MarkerImg":"chingshin.png"},{"BranchId":"402","Name":"屏東縣長治鄉(香楊店)","Address":"屏東縣長治鄉香楊路42號","Tel":"08-7223098","Latitude":"22.6664391","Longitude":"120.5104676","MarkerImg":"chingshin.png"},{"BranchId":"403","Name":"屏東縣南州鄉(三民店)","Address":"屏東縣南州鄉溪州村三民路140號","Tel":"08-8645566","Latitude":"22.4747339","Longitude":"120.5163949","MarkerImg":"chingshin.png"},{"BranchId":"404","Name":"屏東縣恆春鎮(南灣店)","Address":"屏東縣恆春鎮南灣路374號","Tel":"08-8881414","Latitude":"21.9673423","Longitude":"120.7573024","MarkerImg":"chingshin.png"},{"BranchId":"405","Name":"屏東縣恆春鎮(恆春店)","Address":"屏東縣恆春鎮中正路99號","Tel":"08-8882681","Latitude":"22.0034165","Longitude":"120.7442708","MarkerImg":"chingshin.png"},{"BranchId":"406","Name":"屏東縣琉球鄉(琉球店)","Address":"屏東縣琉球鄉中正路172-7號","Tel":"08-8611197","Latitude":"22.3395869","Longitude":"120.3704706","MarkerImg":"chingshin.png"},{"BranchId":"407","Name":"屏東縣高樹鄉(南興店)","Address":"屏東縣高樹鄉南興路49-11號","Tel":"08-7967774","Latitude":"22.8217821","Longitude":"120.602021","MarkerImg":"chingshin.png"},{"BranchId":"408","Name":"屏東縣新園鄉(仙吉店)","Address":"屏東縣新園鄉仙吉村仙吉路49號","Tel":"08-8682881","Latitude":"22.541811","Longitude":"120.460042","MarkerImg":"chingshin.png"},{"BranchId":"409","Name":"屏東縣萬丹鄉(社皮店)","Address":"屏東縣萬丹鄉社皮村大昌路539號","Tel":"08-7076858","Latitude":"22.6161054","Longitude":"120.4684857","MarkerImg":"chingshin.png"},{"BranchId":"410","Name":"屏東縣萬丹鄉(萬丹中興店)","Address":"屏東縣萬丹鄉中興路二段505號","Tel":"08-7776761","Latitude":"22.581705","Longitude":"120.4863811","MarkerImg":"chingshin.png"},{"BranchId":"411","Name":"屏東縣萬丹鄉(萬丹店)","Address":"屏東縣萬丹鄉萬丹路一段472號","Tel":"08-7774118","Latitude":"22.5670268","Longitude":"120.4862381","MarkerImg":"chingshin.png"},{"BranchId":"412","Name":"屏東縣萬巒鄉(萬巒店","Address":"屏東縣萬巒鄉褒忠路163號","Tel":"08-7812331","Latitude":"22.5732701","Longitude":"120.5691041","MarkerImg":"chingshin.png"},{"BranchId":"413","Name":"屏東縣潮洲鎮(永德店)","Address":"屏東縣潮州鎮永德路39號","Tel":"08-7861816","Latitude":"22.54356","Longitude":"120.5394846","MarkerImg":"chingshin.png"},{"BranchId":"414","Name":"屏東縣潮洲鎮(潮洲店)","Address":"屏東縣建基路168號(長興路永生中醫對面)","Tel":"08-7887236","Latitude":"22.5519759","Longitude":"120.5487597","MarkerImg":"chingshin.png"},{"BranchId":"415","Name":"屏東縣麟洛鄉(麟洛店)","Address":"屏東縣麟洛鄉中山路357號","Tel":"08-7211696","Latitude":"22.6505621","Longitude":"120.5267539","MarkerImg":"chingshin.png"},{"BranchId":"416","Name":"屏東縣鹽埔鄉(維新店)","Address":"屏東縣鹽埔鄉維新路90號","Tel":"08-7939881","Latitude":"22.7407229","Longitude":"120.557204","MarkerImg":"chingshin.png"},{"BranchId":"417","Name":"苗栗市中正路(中正店)","Address":"苗栗市中正路1062號","Tel":"037-333259","Latitude":"24.5478524","Longitude":"120.8160652","MarkerImg":"chingshin.png"},{"BranchId":"418","Name":"苗栗市中正路(文昌店)","Address":"苗栗市玉清街16巷1號","Tel":"037-371336","Latitude":"24.5635082","Longitude":"120.8272088","MarkerImg":"chingshin.png"},{"BranchId":"419","Name":"苗栗市中正路(水源店)","Address":"苗栗市中正路1345號","Tel":"037-370909","Latitude":"24.5418192","Longitude":"120.8171329","MarkerImg":"chingshin.png"},{"BranchId":"420","Name":"苗栗市至公路(至公店)","Address":"苗栗市至公路131號","Tel":"037-369122","Latitude":"24.5587886","Longitude":"120.8173349","MarkerImg":"chingshin.png"},{"BranchId":"421","Name":"苗栗市府前路(府前店)","Address":"苗栗市府前路105號","Tel":"037-370211","Latitude":"24.5612052","Longitude":"120.8191099","MarkerImg":"chingshin.png"},{"BranchId":"422","Name":"苗栗市為公路(為公店)","Address":"苗栗市為公路222號","Tel":"037-270711","Latitude":"24.5708331","Longitude":"120.828361","MarkerImg":"chingshin.png"},{"BranchId":"423","Name":"苗栗市新東街(新東店)","Address":"苗栗市新東街140號","Tel":"037-360339","Latitude":"24.5512214","Longitude":"120.8211845","MarkerImg":"chingshin.png"},{"BranchId":"424","Name":"苗栗縣三義鄉(勝興店)","Address":"苗栗縣三義鄉中正路170-5號","Tel":"037-878811","Latitude":"24.4108226","Longitude":"120.7681627","MarkerImg":"chingshin.png"},{"BranchId":"425","Name":"苗栗縣大湖鄉(富興店)","Address":"苗栗縣大湖鄉富興村1-3號","Tel":"037-997022","Latitude":"24.4367468","Longitude":"120.8671201","MarkerImg":"chingshin.png"},{"BranchId":"426","Name":"苗栗縣公館鄉(大同店)","Address":"苗栗縣公館鄉玉泉村大同路25-2號","Tel":"037-237711","Latitude":"24.4984253","Longitude":"120.827869","MarkerImg":"chingshin.png"},{"BranchId":"427","Name":"苗栗縣竹南鎮(中華店)","Address":"苗栗縣頭份鎮中華路105號1樓","Tel":"037-688848","Latitude":"24.664446","Longitude":"120.880126","MarkerImg":"chingshin.png"},{"BranchId":"428","Name":"苗栗縣竹南鎮(民治店)","Address":"苗栗縣竹南鎮民治街42號","Tel":"037-551929","Latitude":"24.6850205","Longitude":"120.8780923","MarkerImg":"chingshin.png"},{"BranchId":"429","Name":"苗栗縣竹南鎮(光復店)","Address":"苗栗縣竹南鎮光復路204號","Tel":"037-550919","Latitude":"24.6885637","Longitude":"120.8793719","MarkerImg":"chingshin.png"},{"BranchId":"430","Name":"苗栗縣竹南鎮(博愛店)","Address":"苗栗縣竹南鎮博愛街160號","Tel":"037-551695","Latitude":"24.6869954","Longitude":"120.875166","MarkerImg":"chingshin.png"},{"BranchId":"431","Name":"苗栗縣竹南鎮(龍山店)","Address":"苗栗縣竹南鎮龍山路三段171號","Tel":"037-629992","Latitude":"24.7024082","Longitude":"120.8814957","MarkerImg":"chingshin.png"},{"BranchId":"432","Name":"苗栗縣卓蘭鎮(中山店)","Address":"苗栗縣卓蘭鎮中山路89號","Tel":"04-25891677","Latitude":"24.3117067","Longitude":"120.8267742","MarkerImg":"chingshin.png"},{"BranchId":"433","Name":"苗栗縣後龍鎮(三民店)","Address":"苗栗縣後龍鎮三民路121號","Tel":"037-724525","Latitude":"24.6145832","Longitude":"120.7870754","MarkerImg":"chingshin.png"},{"BranchId":"434","Name":"苗栗縣苑里鎮(站前店)","Address":"苗栗縣苑裡鎮為公路58號","Tel":"037-867688","Latitude":"24.4434383","Longitude":"120.6520939","MarkerImg":"chingshin.png"},{"BranchId":"435","Name":"苗栗縣苑裡鎮(世界店)","Address":"苗栗縣苑裡鎮客庄里83-3號","Tel":"037-851351","Latitude":"24.4373554","Longitude":"120.6559401","MarkerImg":"chingshin.png"},{"BranchId":"436","Name":"苗栗縣通霄鎮(中山店)","Address":"苗栗縣通霄鎮中山路165號","Tel":"037-752168","Latitude":"24.4814935","Longitude":"120.6754985","MarkerImg":"chingshin.png"},{"BranchId":"437","Name":"苗栗縣銅鑼鄉(中正店)","Address":"苗栗縣銅鑼鄉中正路162-1號","Tel":"037-981995","Latitude":"24.4882251","Longitude":"120.78739","MarkerImg":"chingshin.png"},{"BranchId":"438","Name":"苗栗縣頭份鎮(中正店)","Address":"苗栗縣頭份鎮中正一路507號","Tel":"037-682289","Latitude":"24.6832819","Longitude":"120.9383606","MarkerImg":"chingshin.png"},{"BranchId":"439","Name":"苗栗縣頭份鎮(信東店)","Address":"苗栗縣頭份鎮信東路177號","Tel":"037-591600","Latitude":"24.6902954","Longitude":"120.9088369","MarkerImg":"chingshin.png"},{"BranchId":"440","Name":"苗栗縣頭份鎮(信義店)","Address":"苗栗縣頭份鎮信義路55號","Tel":"037-696911","Latitude":"24.684395","Longitude":"120.9090348","MarkerImg":"chingshin.png"},{"BranchId":"441","Name":"苗栗縣頭份鎮(建國店)","Address":"苗栗縣頭份鎮建國路100號","Tel":"037-682818","Latitude":"24.6953804","Longitude":"120.9107083","MarkerImg":"chingshin.png"},{"BranchId":"442","Name":"桃園市大有路(大有店)","Address":"桃園市大有路449號","Tel":"03-3163866","Latitude":"25.0127185","Longitude":"121.3184888","MarkerImg":"chingshin.png"},{"BranchId":"443","Name":"桃園市中正路(中正店)","Address":"桃園市中正路475號","Tel":"03-3319977","Latitude":"25.0017864","Longitude":"121.3064225","MarkerImg":"chingshin.png"},{"BranchId":"444","Name":"桃園市中埔(中埔店)","Address":"桃園市中浦六街48號","Tel":"03-3163563","Latitude":"25.0175031","Longitude":"121.2956045","MarkerImg":"chingshin.png"},{"BranchId":"445","Name":"桃園市民生路(民生店)","Address":"桃園市民生路383號","Tel":"03-3356385","Latitude":"24.9996011","Longitude":"121.3106126","MarkerImg":"chingshin.png"},{"BranchId":"446","Name":"桃園市民生路(成功店)","Address":"桃園市民生路142號","Tel":"03-3396677","Latitude":"24.9926197","Longitude":"121.3138023","MarkerImg":"chingshin.png"},{"BranchId":"447","Name":"桃園市永安路(永安店)","Address":"桃園市永安路500號","Tel":"03-3360186","Latitude":"25.0062206","Longitude":"121.293927","MarkerImg":"chingshin.png"},{"BranchId":"448","Name":"桃園市南平路(南平店)","Address":"桃園市南平路256號","Tel":"03-3561736","Latitude":"25.0190663","Longitude":"121.3003522","MarkerImg":"chingshin.png"},{"BranchId":"449","Name":"桃園市春日路(大興店)","Address":"桃園市大興路191號","Tel":"03-3169091","Latitude":"25.015611","Longitude":"121.311962","MarkerImg":"chingshin.png"},{"BranchId":"450","Name":"桃園市桃鶯路(桃鶯店)","Address":"桃園市桃鶯路307號","Tel":"03-3623911","Latitude":"24.9826169","Longitude":"121.319167","MarkerImg":"chingshin.png"},{"BranchId":"451","Name":"桃園市莒光街(莒光店)","Address":"桃園市莒光街7號","Tel":"03-3391189","Latitude":"24.9953837","Longitude":"121.3053736","MarkerImg":"chingshin.png"},{"BranchId":"452","Name":"桃園市壽昌街(壽昌店)","Address":"桃園市壽昌街20巷40號","Tel":"03-2203882","Latitude":"24.9901327","Longitude":"121.2929146","MarkerImg":"chingshin.png"},{"BranchId":"453","Name":"桃園市龍安街(龍安店)","Address":"桃園市龍安街172-2號","Tel":"03-3780055","Latitude":"24.9921663","Longitude":"121.2790735","MarkerImg":"chingshin.png"},{"BranchId":"454","Name":"桃園縣桃園市(中正二店)","Address":"桃園市中正路684號","Tel":"03-3469977","Latitude":"25.0064123","Longitude":"121.3038287","MarkerImg":"chingshin.png"},{"BranchId":"455","Name":"桃園縣桃園市(陽明店)","Address":"桃園市三民路三段593號","Tel":"03-3645000","Latitude":"24.9832884","Longitude":"121.3076645","MarkerImg":"chingshin.png"},{"BranchId":"456","Name":"中壢市實踐路(實踐店)","Address":"桃園縣中壢市實踐路112號","Tel":"03-4655911","Latitude":"24.9557903","Longitude":"121.2403656","MarkerImg":"chingshin.png"},{"BranchId":"457","Name":"桃園市復興路(復興店)","Address":"桃園縣桃園市復興路365-3號","Tel":"03-3333612","Latitude":"24.990133","Longitude":"121.3035947","MarkerImg":"chingshin.png"},{"BranchId":"458","Name":"桃園縣八德市(介壽店)","Address":"桃園縣八德市介壽路ㄧ段813號","Tel":"03-3662436","Latitude":"24.9620389","Longitude":"121.3000917","MarkerImg":"chingshin.png"},{"BranchId":"459","Name":"桃園縣八德市(永豐店)","Address":"桃園縣八德市永豐路595號","Tel":"03-3697758","Latitude":"24.9755288","Longitude":"121.271015","MarkerImg":"chingshin.png"},{"BranchId":"460","Name":"桃園縣八德市(和平店)","Address":"桃園縣八德市和平路228號","Tel":"03-3641987","Latitude":"24.95731","Longitude":"121.3044968","MarkerImg":"chingshin.png"},{"BranchId":"461","Name":"桃園縣八德市(博愛店)","Address":"桃園縣八德市介壽路二段408號","Tel":"03-3776169","Latitude":"24.9469513","Longitude":"121.2972783","MarkerImg":"chingshin.png"},{"BranchId":"462","Name":"桃園縣八德市(廣福二店)","Address":"桃園縣八德市興豐路318號","Tel":"03-3685238","Latitude":"24.9292424","Longitude":"121.2868047","MarkerImg":"chingshin.png"},{"BranchId":"463","Name":"桃園縣八德市(廣福店)","Address":"桃園縣八德市廣福路107號","Tel":"03-3661986","Latitude":"24.9592224","Longitude":"121.2966175","MarkerImg":"chingshin.png"},{"BranchId":"464","Name":"桃園縣八德市(興豐店)","Address":"桃園縣八德市介壽路二段1217號","Tel":"03-3688000","Latitude":"24.930961","Longitude":"121.297535","MarkerImg":"chingshin.png"},{"BranchId":"465","Name":"桃園縣大園鄉(中正東店)","Address":"桃園縣大園鄉中正東路67號-1","Tel":"03-3865968","Latitude":"25.0631661","Longitude":"121.2000356","MarkerImg":"chingshin.png"},{"BranchId":"466","Name":"桃園縣大園鄉(中華店)","Address":"桃園縣大園鄉中華路13號","Tel":"03-3853282","Latitude":"25.0662234","Longitude":"121.1975062","MarkerImg":"chingshin.png"},{"BranchId":"467","Name":"桃園縣大園鄉(果林店)","Address":"桃園縣大園鄉果林村23號-78","Tel":"03-3933685","Latitude":"25.0791383","Longitude":"121.2597753","MarkerImg":"chingshin.png"},{"BranchId":"468","Name":"桃園縣大溪鎮(仁和店)","Address":"桃園縣大溪鎮仁和路二段56號","Tel":"03-3893738","Latitude":"24.9055259","Longitude":"121.2640043","MarkerImg":"chingshin.png"},{"BranchId":"469","Name":"桃園縣大溪鎮(員林店)","Address":"桃園縣大溪鎮員林路一段217-1號","Tel":"03-3907517","Latitude":"24.8962858","Longitude":"121.2783907","MarkerImg":"chingshin.png"},{"BranchId":"470","Name":"桃園縣大溪鎮(復興店)","Address":"桃園縣大溪鎮復興路19號","Tel":"03-3874519","Latitude":"24.8806503","Longitude":"121.2893695","MarkerImg":"chingshin.png"},{"BranchId":"471","Name":"桃園縣中壢市(中山東店)","Address":"桃園縣中壢市中山東路二段167號","Tel":"03-4567625","Latitude":"24.9525757","Longitude":"121.2397824","MarkerImg":"chingshin.png"},{"BranchId":"472","Name":"桃園縣中壢市(中央店)","Address":"桃園縣中壢市中央路171號","Tel":"03-4202777","Latitude":"24.9651207","Longitude":"121.1909476","MarkerImg":"chingshin.png"},{"BranchId":"473","Name":"桃園縣中壢市(中和店)","Address":"桃園縣中壢市中和路124號","Tel":"03-4252929","Latitude":"24.9536697","Longitude":"121.2250759","MarkerImg":"chingshin.png"},{"BranchId":"474","Name":"桃園縣中壢市(中華店)","Address":"桃園縣中壢市中華路一段197號1樓","Tel":"03-4634223","Latitude":"24.9702215","Longitude":"121.2497159","MarkerImg":"chingshin.png"},{"BranchId":"475","Name":"桃園縣中壢市(中園店)","Address":"桃園縣中壢市中園路二段99號","Tel":"03-4331768","Latitude":"24.991411","Longitude":"121.2342774","MarkerImg":"chingshin.png"},{"BranchId":"476","Name":"桃園縣中壢市(元化店)","Address":"桃園縣中壢市元化路290號","Tel":"03-4256528","Latitude":"24.9619865","Longitude":"121.2246251","MarkerImg":"chingshin.png"},{"BranchId":"477","Name":"桃園縣中壢市(民族店)","Address":"桃園縣中壢市民族路2段94號","Tel":"03-4921777","Latitude":"24.9578279","Longitude":"121.2060004","MarkerImg":"chingshin.png"},{"BranchId":"478","Name":"桃園縣中壢市(民權店)","Address":"桃園縣中壢市新明路271號","Tel":"03-4915380","Latitude":"24.9625006","Longitude":"121.2179339","MarkerImg":"chingshin.png"},{"BranchId":"479","Name":"桃園縣中壢市(延平店)","Address":"桃園縣中壢市延平路577號","Tel":"03-4260788","Latitude":"24.9547681","Longitude":"121.222592","MarkerImg":"chingshin.png"},{"BranchId":"480","Name":"桃園縣中壢市(忠孝店)","Address":"桃園縣中壢市忠孝路276號","Tel":"03-4628663","Latitude":"24.9790805","Longitude":"121.2542728","MarkerImg":"chingshin.png"},{"BranchId":"481","Name":"桃園縣中壢市(金陵店)","Address":"桃園縣中壢市金陵路36號","Tel":"03-4685222","Latitude":"24.94988","Longitude":"121.222857","MarkerImg":"chingshin.png"},{"BranchId":"482","Name":"桃園縣中壢市(金鋒店)","Address":"桃園縣中壢市中山東路三段62號","Tel":"03-4387508","Latitude":"24.9419392","Longitude":"121.2504792","MarkerImg":"chingshin.png"},{"BranchId":"483","Name":"桃園縣中壢市(長沙店)","Address":"桃園縣中壢市長沙路13號","Tel":"03-4586381","Latitude":"24.9485002","Longitude":"121.2286038","MarkerImg":"chingshin.png"},{"BranchId":"484","Name":"桃園縣中壢市(長春店)","Address":"桃園縣中壢市長春路69號","Tel":"03-4617878","Latitude":"24.9785548","Longitude":"121.2489826","MarkerImg":"chingshin.png"},{"BranchId":"485","Name":"桃園縣中壢市(南園店)","Address":"桃園縣中壢市南園二路37號","Tel":"03-4356328","Latitude":"24.9716671","Longitude":"121.2347652","MarkerImg":"chingshin.png"},{"BranchId":"486","Name":"桃園縣中壢市(新中北二店)","Address":"桃園縣中壢市新中北路二段465號","Tel":"03-4340555","Latitude":"24.9558539","Longitude":"121.2637706","MarkerImg":"chingshin.png"},{"BranchId":"487","Name":"桃園縣中壢市(新中北店)","Address":"桃園縣中壢市新中北路234號","Tel":"03-4568738","Latitude":"24.9590592","Longitude":"121.2396448","MarkerImg":"chingshin.png"},{"BranchId":"488","Name":"桃園縣中壢市(新明店)","Address":"桃園縣中壢市新明路43號","Tel":"03-2811597","Latitude":"24.9582417","Longitude":"121.2146439","MarkerImg":"chingshin.png"},{"BranchId":"489","Name":"桃園縣中壢市(榮民店)","Address":"桃園縣中壢市榮民路115號","Tel":"03-4614818","Latitude":"24.9678046","Longitude":"121.2608118","MarkerImg":"chingshin.png"},{"BranchId":"490","Name":"桃園縣中壢市(龍岡店)","Address":"桃園縣中壢市龍岡路三段181號","Tel":"03-4583396","Latitude":"24.9359895","Longitude":"121.2336446","MarkerImg":"chingshin.png"},{"BranchId":"491","Name":"桃園縣中壢市(龍昌店)","Address":"桃園縣中壢市龍昌路276號","Tel":"03-4560099","Latitude":"24.9355272","Longitude":"121.2492731","MarkerImg":"chingshin.png"},{"BranchId":"492","Name":"桃園縣中壢市(龍東店)","Address":"桃園縣中壢市龍東路358號","Tel":"03-4659066","Latitude":"24.9322143","Longitude":"121.2559206","MarkerImg":"chingshin.png"},{"BranchId":"493","Name":"桃園縣中壢市(環北店)","Address":"桃園縣中壢市環北路533號","Tel":"03-4552212","Latitude":"24.9645371","Longitude":"121.2289965","MarkerImg":"chingshin.png"},{"BranchId":"494","Name":"桃園縣中壢市(雙榮店)","Address":"桃園縣楊梅鎮民族路五段145號","Tel":"03-4204568","Latitude":"24.9562298","Longitude":"121.1707335","MarkerImg":"chingshin.png"},{"BranchId":"495","Name":"桃園縣平鎮市(山頂店)","Address":"桃園縣平鎮市中豐路山頂段158號1樓","Tel":"03-4195123","Latitude":"24.9004193","Longitude":"121.210943","MarkerImg":"chingshin.png"},{"BranchId":"496","Name":"桃園縣平鎮市(中豐店)","Address":"桃園縣平鎮市中豐路南勢二段159號","Tel":"03-4392311","Latitude":"24.913476","Longitude":"121.2106409","MarkerImg":"chingshin.png"},{"BranchId":"497","Name":"桃園縣平鎮市(文化店)","Address":"桃園縣平鎮市文化街160號","Tel":"03-2813131","Latitude":"24.9131488","Longitude":"121.1840077","MarkerImg":"chingshin.png"},{"BranchId":"498","Name":"桃園縣平鎮市(平東店)","Address":"桃園縣平鎮市平東路31號","Tel":"03-4601130","Latitude":"24.91799","Longitude":"121.253135","MarkerImg":"chingshin.png"},{"BranchId":"499","Name":"桃園縣平鎮市(育達店)","Address":"桃園縣平鎮市育達路119號","Tel":"03-4026683","Latitude":"24.951725","Longitude":"121.2101034","MarkerImg":"chingshin.png"},{"BranchId":"500","Name":"桃園縣平鎮市(延平店)","Address":"桃園縣平鎮市延平路三段40號","Tel":"03-4020099","Latitude":"24.9416689","Longitude":"121.2050979","MarkerImg":"chingshin.png"},{"BranchId":"501","Name":"桃園縣平鎮市(金隆店)","Address":"桃園縣平鎮市金陵路三段110號","Tel":"03-4596611","Latitude":"24.927297","Longitude":"121.227357","MarkerImg":"chingshin.png"},{"BranchId":"502","Name":"桃園縣平鎮市(龍南店)","Address":"桃園縣平鎮市龍南路10號","Tel":"03-4606166","Latitude":"24.9246033","Longitude":"121.2442066","MarkerImg":"chingshin.png"},{"BranchId":"503","Name":"桃園縣桃園市(站前店)","Address":"桃園縣桃園市復興路119-1號","Tel":"03-3339009","Latitude":"24.9904633","Longitude":"121.3132711","MarkerImg":"chingshin.png"},{"BranchId":"504","Name":"桃園縣新屋鄉(中華店)","Address":"桃園縣新屋鄉中華路247號","Tel":"03-4870005","Latitude":"24.972397","Longitude":"121.1072136","MarkerImg":"chingshin.png"},{"BranchId":"505","Name":"桃園縣楊梅鎮(大成店)","Address":"桃園縣楊梅鎮大成路186號","Tel":"03-4789678","Latitude":"24.9096881","Longitude":"121.1456415","MarkerImg":"chingshin.png"},{"BranchId":"506","Name":"桃園縣楊梅鎮(中山北店)","Address":"桃園縣楊梅鎮中山北路2段162號","Tel":"03-4317277","Latitude":"24.9089345","Longitude":"121.1712287","MarkerImg":"chingshin.png"},{"BranchId":"507","Name":"桃園縣楊梅鎮(文化店)","Address":"桃園縣楊梅鎮文化街238號","Tel":"03-4313631","Latitude":"24.9119177","Longitude":"121.1835067","MarkerImg":"chingshin.png"},{"BranchId":"508","Name":"桃園縣楊梅鎮(永美店)","Address":"桃園縣楊梅鎮永美路233號","Tel":"03-4315569","Latitude":"24.9190822","Longitude":"121.1838936","MarkerImg":"chingshin.png"},{"BranchId":"509","Name":"桃園縣楊梅鎮(環東店)","Address":"桃園縣楊梅鎮環東路470號","Tel":"03-4753799","Latitude":"24.9103921","Longitude":"121.1567486","MarkerImg":"chingshin.png"},{"BranchId":"510","Name":"桃園縣龍潭鄉(中正店)","Address":"桃園縣龍潭鄉中正路498號","Tel":"03-4701199","Latitude":"24.8565074","Longitude":"121.2194132","MarkerImg":"chingshin.png"},{"BranchId":"511","Name":"桃園縣龍潭鄉(中興店)","Address":"桃園縣龍潭鄉中興路481-2號","Tel":"03-4790111","Latitude":"24.8722414","Longitude":"121.2281973","MarkerImg":"chingshin.png"},{"BranchId":"512","Name":"桃園縣龍潭鄉(北龍店)","Address":"桃園縣龍潭鄉北龍路66號","Tel":"03-4097979","Latitude":"24.8656483","Longitude":"121.2125153","MarkerImg":"chingshin.png"},{"BranchId":"513","Name":"桃園縣龍潭鄉(百年店)","Address":"桃園縣龍潭鄉中豐路323號","Tel":"03-4892996","Latitude":"24.8685806","Longitude":"121.2187115","MarkerImg":"chingshin.png"},{"BranchId":"514","Name":"桃園縣龍潭鄉(東龍店)","Address":"桃園縣龍潭鄉東龍路218號","Tel":"03-4802222","Latitude":"24.8646521","Longitude":"121.2142796","MarkerImg":"chingshin.png"},{"BranchId":"515","Name":"桃園縣龜山鄉(山鶯店)","Address":"桃園縣龜山鄉中興路39號","Tel":"03-3205678","Latitude":"24.9941485","Longitude":"121.3379906","MarkerImg":"chingshin.png"},{"BranchId":"516","Name":"桃園縣龜山鄉(中興店)","Address":"桃園縣龜山鄉中興路372號","Tel":"03-3207799","Latitude":"24.9923836","Longitude":"121.3358936","MarkerImg":"chingshin.png"},{"BranchId":"517","Name":"桃園縣龜山鄉(文化店)","Address":"桃園縣龜山鄉復興一路348號","Tel":"03-3182993","Latitude":"25.0557406","Longitude":"121.362496","MarkerImg":"chingshin.png"},{"BranchId":"518","Name":"桃園縣龜山鄉(民生北店)","Address":"桃園縣龜山鄉民生北路一段13號","Tel":"03-3565581","Latitude":"25.0306048","Longitude":"121.3038931","MarkerImg":"chingshin.png"},{"BranchId":"519","Name":"桃園縣龜山鄉(林口復興店)","Address":"桃園縣龜山鄉復興北路53號","Tel":"03-3277997","Latitude":"25.0587695","Longitude":"121.3698135","MarkerImg":"chingshin.png"},{"BranchId":"520","Name":"桃園縣龜山鄉(振興店)","Address":"桃園縣龜山鄉振興路1301號","Tel":"03-3279249","Latitude":"25.0335922","Longitude":"121.3795795","MarkerImg":"chingshin.png"},{"BranchId":"521","Name":"桃園縣龜山鄉(迴龍店)","Address":"桃園縣龜山鄉萬壽路一段244號","Tel":"02-82096042","Latitude":"25.0179831","Longitude":"121.4050424","MarkerImg":"chingshin.png"},{"BranchId":"522","Name":"桃園縣龜山鄉(萬壽店)","Address":"桃園縣龜山鄉萬壽路二段127號","Tel":"03-3492111","Latitude":"24.997268","Longitude":"121.3431461","MarkerImg":"chingshin.png"},{"BranchId":"523","Name":"桃園縣龜山鄉(德明店)","Address":"桃園縣龜山鄉德明路99號","Tel":"03-3292982","Latitude":"24.9892201","Longitude":"121.343987","MarkerImg":"chingshin.png"},{"BranchId":"524","Name":"桃園縣蘆竹鄉(大竹店)","Address":"桃園縣蘆竹鄉大竹路428-7號","Tel":"03-3135166","Latitude":"25.0215076","Longitude":"121.2629972","MarkerImg":"chingshin.png"},{"BranchId":"525","Name":"桃園縣蘆竹鄉(中正店)","Address":"桃園縣蘆竹鄉南崁路296號","Tel":"03-3220679","Latitude":"25.0544849","Longitude":"121.2839","MarkerImg":"chingshin.png"},{"BranchId":"526","Name":"桃園縣蘆竹鄉(南山店)","Address":"桃園縣蘆竹鄉南山路三段284號","Tel":"03-3249768","Latitude":"25.084855","Longitude":"121.286333","MarkerImg":"chingshin.png"},{"BranchId":"527","Name":"桃園縣蘆竹鄉(南竹店)","Address":"桃園縣蘆竹鄉南竹路二段37號","Tel":"03-3215651","Latitude":"25.042394","Longitude":"121.2864632","MarkerImg":"chingshin.png"},{"BranchId":"528","Name":"桃園縣蘆竹鄉(南崁店)","Address":"桃園縣蘆竹鄉南崁路125號","Tel":"03-2220918","Latitude":"25.0519347","Longitude":"121.2875334","MarkerImg":"chingshin.png"},{"BranchId":"529","Name":"桃園縣觀音鄉(大觀路)","Address":"桃園縣觀音鄉大觀路二段111號","Tel":"03-4761626","Latitude":"25.0467974","Longitude":"121.1421897","MarkerImg":"chingshin.png"},{"BranchId":"530","Name":"桃園縣觀音鄉(工業店)","Address":"桃園縣觀音鄉成功路二段893號","Tel":"03-4761526","Latitude":"25.0507523","Longitude":"121.1169303","MarkerImg":"chingshin.png"},{"BranchId":"531","Name":"桃園縣觀音鄉(中正店)","Address":"桃園縣觀音鄉中正路303號","Tel":"03-4737979","Latitude":"25.035213","Longitude":"121.079967","MarkerImg":"chingshin.png"},{"BranchId":"532","Name":"桃園縣觀音鄉(新坡店)","Address":"桃園縣觀音鄉中山路二段600號","Tel":"03-4986533","Latitude":"25.01333","Longitude":"121.134773","MarkerImg":"chingshin.png"},{"BranchId":"533","Name":"高雄市三民區(九如店)","Address":"高雄市三民區延吉街54號","Tel":"07-3891817","Latitude":"22.6404331","Longitude":"120.3197427","MarkerImg":"chingshin.png"},{"BranchId":"534","Name":"高雄市三民區(大豐店)","Address":"高雄市三民區大豐二路363號","Tel":"07-3946111","Latitude":"22.6467311","Longitude":"120.3344833","MarkerImg":"chingshin.png"},{"BranchId":"535","Name":"高雄市三民區(立志店)","Address":"高雄市三民區大昌一路102號","Tel":"07-3837766","Latitude":"22.653789","Longitude":"120.32646","MarkerImg":"chingshin.png"},{"BranchId":"536","Name":"高雄市三民區(自立店)","Address":"高雄市三民區自立一路79號","Tel":"07-2873168","Latitude":"22.6365027","Longitude":"120.2967189","MarkerImg":"chingshin.png"},{"BranchId":"537","Name":"高雄市三民區(自強店)","Address":"高雄市三民區自強一路205號","Tel":"07-2155112","Latitude":"22.6348728","Longitude":"120.2915047","MarkerImg":"chingshin.png"},{"BranchId":"538","Name":"高雄市三民區(臥龍店)","Address":"高雄市三民區臥龍路68號","Tel":"07-3868211","Latitude":"22.6395047","Longitude":"120.3301975","MarkerImg":"chingshin.png"},{"BranchId":"539","Name":"高雄市三民區(建興店)","Address":"高雄市三民區建興路252號","Tel":"07-3946616","Latitude":"22.6450039","Longitude":"120.3244274","MarkerImg":"chingshin.png"},{"BranchId":"540","Name":"高雄市三民區(新嫩江店)","Address":"高雄市三民區嫩江街96號","Tel":"07-3232070","Latitude":"22.6436035","Longitude":"120.2985561","MarkerImg":"chingshin.png"},{"BranchId":"541","Name":"高雄市三民區(義華店)","Address":"高雄市三民區義華路387號","Tel":"07-3810122","Latitude":"22.643446","Longitude":"120.3332521","MarkerImg":"chingshin.png"},{"BranchId":"542","Name":"高雄市三民區(鼎力店)","Address":"高雄市三民區鼎力路299號","Tel":"07-3107886","Latitude":"22.668989","Longitude":"120.323818","MarkerImg":"chingshin.png"},{"BranchId":"543","Name":"高雄市三民區(鼎中店)","Address":"高雄市三民區鼎中路371號","Tel":"07-3103656","Latitude":"22.6668459","Longitude":"120.3194242","MarkerImg":"chingshin.png"},{"BranchId":"544","Name":"高雄市三民區(鼎勇店)","Address":"高雄市三民區鼎山街365號","Tel":"07-3981488","Latitude":"22.6578279","Longitude":"120.3219763","MarkerImg":"chingshin.png"},{"BranchId":"545","Name":"高雄市三民區(熱河店)","Address":"高雄市三民區熱河一街212號","Tel":"07-3131316","Latitude":"22.6437398","Longitude":"120.3080475","MarkerImg":"chingshin.png"},{"BranchId":"546","Name":"高雄市大社區(義守中山店)","Address":"高雄市大社區中山路425號","Tel":"07-3526885","Latitude":"22.731301","Longitude":"120.3526688","MarkerImg":"chingshin.png"},{"BranchId":"547","Name":"高雄市大社區(義守店)","Address":"高雄市大社區大新路2號","Tel":"07-3516776","Latitude":"22.7251676","Longitude":"120.3506892","MarkerImg":"chingshin.png"},{"BranchId":"548","Name":"高雄市大寮區(大發店)","Address":"高雄市大寮區大寮路714號","Tel":"07-7888122","Latitude":"22.5914399","Longitude":"120.4154534","MarkerImg":"chingshin.png"},{"BranchId":"549","Name":"高雄市大寮區(大寮店)","Address":"高雄市大寮區鳳林三路550號","Tel":"07-7826363","Latitude":"22.6065465","Longitude":"120.3953711","MarkerImg":"chingshin.png"},{"BranchId":"550","Name":"高雄市大寮區(中庄店)","Address":"高雄市大寮區中庄村八德路24號","Tel":"07-7011261","Latitude":"22.584481","Longitude":"120.4011911","MarkerImg":"chingshin.png"},{"BranchId":"551","Name":"高雄市大樹區(中興二店)","Address":"高雄市大樹中興西路17號","Tel":"07-6528611","Latitude":"22.6911811","Longitude":"120.4305112","MarkerImg":"chingshin.png"},{"BranchId":"552","Name":"高雄市大樹區(中興店)","Address":"高雄市大樹區久堂村中興街7-2號","Tel":"07-6512876","Latitude":"22.6588717","Longitude":"120.4202642","MarkerImg":"chingshin.png"},{"BranchId":"553","Name":"高雄市小港區(大林蒲店)","Address":"高雄市小港區鳳林路83號","Tel":"07-8711508","Latitude":"22.5262117","Longitude":"120.346499","MarkerImg":"chingshin.png"},{"BranchId":"554","Name":"高雄市小港區(小港店)","Address":"高雄市小港區小港路307號","Tel":"07-8218582","Latitude":"22.5634408","Longitude":"120.3350233","MarkerImg":"chingshin.png"},{"BranchId":"556","Name":"高雄市小港區(崇文店)","Address":"高雄市小港區康莊路102號","Tel":"07-8016878","Latitude":"22.568327","Longitude":"120.35457","MarkerImg":"chingshin.png"},{"BranchId":"557","Name":"高雄市小港區(博學店)","Address":"高雄市小港區博學路577號","Tel":"07-8039397","Latitude":"22.5653998","Longitude":"120.3704653","MarkerImg":"chingshin.png"},{"BranchId":"558","Name":"高雄市仁武區(仁武店)","Address":"高雄市仁武區仁武村中正路237-1號","Tel":"07-3745616","Latitude":"22.7009673","Longitude":"120.3463932","MarkerImg":"chingshin.png"},{"BranchId":"559","Name":"高雄市仁武區(仁雄二店)","Address":"高雄市仁武區八德中路197號","Tel":"07-3715616","Latitude":"22.6869199","Longitude":"120.3365762","MarkerImg":"chingshin.png"},{"BranchId":"560","Name":"高雄市仁武區(仁雄店)","Address":"高雄市仁武區仁雄路42-8號","Tel":"07-3741699","Latitude":"22.6807072","Longitude":"120.3507881","MarkerImg":"chingshin.png"},{"BranchId":"561","Name":"高雄市六龜區(光復店)","Address":"高雄市六龜區文武村光復路223號","Tel":"07-6895822","Latitude":"23.0026195","Longitude":"120.6545022","MarkerImg":"chingshin.png"},{"BranchId":"562","Name":"高雄市六龜區(寶來店)","Address":"高雄市六龜區寶來村中正路80號","Tel":"07-6881226","Latitude":"23.0026195","Longitude":"120.6545022","MarkerImg":"chingshin.png"},{"BranchId":"563","Name":"高雄市左營區(軍校店)","Address":"高雄市左營區軍校路二巷54號","Tel":"07-5812116","Latitude":"22.6879812","Longitude":"120.2926845","MarkerImg":"chingshin.png"},{"BranchId":"564","Name":"高雄市左營區(重愛店)","Address":"高雄市左營區重愛路10號","Tel":"07-3101166","Latitude":"22.683223","Longitude":"120.319446","MarkerImg":"chingshin.png"},{"BranchId":"565","Name":"高雄市左營區(海官二店)","Address":"高雄市左營區左營大路652號","Tel":"07-5821388","Latitude":"22.691478","Longitude":"120.297809","MarkerImg":"chingshin.png"},{"BranchId":"566","Name":"高雄市左營區(崇德店)","Address":"高雄市左營區崇德路251號","Tel":"07-3590861","Latitude":"22.6753178","Longitude":"120.3041387","MarkerImg":"chingshin.png"},{"BranchId":"567","Name":"高雄市左營區(勝利店)","Address":"高雄市左營區勝利路185號","Tel":"07-5832388","Latitude":"22.6815063","Longitude":"120.288342","MarkerImg":"chingshin.png"},{"BranchId":"568","Name":"高雄市左營區(富國店)","Address":"高雄市左營區富國路371號","Tel":"07-5507900","Latitude":"22.6672101","Longitude":"120.3075056","MarkerImg":"chingshin.png"},{"BranchId":"569","Name":"高雄市左營區(華夏店)","Address":"高雄市左營區華夏路1155號","Tel":"07-3502661","Latitude":"22.6845678","Longitude":"120.3093087","MarkerImg":"chingshin.png"},{"BranchId":"570","Name":"高雄市左營區(榮總店)","Address":"高雄市左營區榮總路29號","Tel":"07-3599199","Latitude":"22.6785527","Longitude":"120.3217332","MarkerImg":"chingshin.png"},{"BranchId":"571","Name":"高雄市岡山區(介壽店)","Address":"高雄市岡山區介壽西路65號","Tel":"07-6261161","Latitude":"22.7842023","Longitude":"120.2831052","MarkerImg":"chingshin.png"},{"BranchId":"572","Name":"高雄市岡山區(本洲店)","Address":"高雄市岡山區本洲里本洲路339號","Tel":"07-6219986","Latitude":"22.8075165","Longitude":"120.2618625","MarkerImg":"chingshin.png"},{"BranchId":"573","Name":"高雄市岡山區(岡山二店)","Address":"高雄市岡山區岡山路189號","Tel":"07-6231282","Latitude":"22.791571","Longitude":"120.2959196","MarkerImg":"chingshin.png"},{"BranchId":"574","Name":"高雄市岡山區(岡山店)","Address":"高雄市岡山區中華路1-5號","Tel":"07-6267011","Latitude":"22.7909961","Longitude":"120.2883737","MarkerImg":"chingshin.png"},{"BranchId":"575","Name":"高雄市岡山區(岡北店)","Address":"高雄市岡山區岡山北路38-2號","Tel":"07-6210989","Latitude":"22.8097506","Longitude":"120.2826457","MarkerImg":"chingshin.png"},{"BranchId":"576","Name":"高雄市岡山區(前鋒店)","Address":"高雄市岡山區前峰路109-7號","Tel":"07-6266516","Latitude":"22.797146","Longitude":"120.285011","MarkerImg":"chingshin.png"},{"BranchId":"577","Name":"高雄市岡山區(站前店)","Address":"高雄市岡山區中山南路525號","Tel":"07-6232862","Latitude":"22.7917041","Longitude":"120.298935","MarkerImg":"chingshin.png"},{"BranchId":"578","Name":"高雄市岡山區(嘉興店)","Address":"高雄市岡山區嘉興里嘉興路222號","Tel":"07-6211816","Latitude":"22.820713","Longitude":"120.302856","MarkerImg":"chingshin.png"},{"BranchId":"579","Name":"高雄市林園區(林園店)","Address":"高雄市林園區文化街151號","Tel":"07-6465866","Latitude":"22.5068632","Longitude":"120.3942394","MarkerImg":"chingshin.png"},{"BranchId":"580","Name":"高雄市林園區(林園東林店)","Address":"高雄市林園區東林西路197號","Tel":"07-6438686","Latitude":"22.5033445","Longitude":"120.3919875","MarkerImg":"chingshin.png"},{"BranchId":"581","Name":"高雄市阿蓮區(阿蓮二店)","Address":"高雄市阿蓮區中山路103號","Tel":"07-6312986","Latitude":"22.8795589","Longitude":"120.3287655","MarkerImg":"chingshin.png"},{"BranchId":"582","Name":"高雄市阿蓮區(阿蓮店)","Address":"高雄市阿蓮區中正路484號","Tel":"07-6321676","Latitude":"22.8807374","Longitude":"120.3330903","MarkerImg":"chingshin.png"},{"BranchId":"583","Name":"高雄市前金區(七賢店)","Address":"高雄市前金區七賢二路158-1號","Tel":"07-2851968","Latitude":"22.6335743","Longitude":"120.296377","MarkerImg":"chingshin.png"},{"BranchId":"584","Name":"高雄市前金區(後金店)","Address":"高雄市前金區自強一路102號","Tel":"07-2156633","Latitude":"22.6319032","Longitude":"120.2928941","MarkerImg":"chingshin.png"},{"BranchId":"585","Name":"高雄市前金區(瑞源店)","Address":"高雄市前金區自立二路128-1號","Tel":"07-2878668","Latitude":"22.6325513","Longitude":"120.2985402","MarkerImg":"chingshin.png"},{"BranchId":"586","Name":"高雄市前區區(佛德店)","Address":"高雄市前區區佛德街12號","Tel":"07-8123480","Latitude":"22.6238898","Longitude":"120.3230776","MarkerImg":"chingshin.png"},{"BranchId":"587","Name":"高雄市前區區(區興店)","Address":"高雄市前區區區興路145-1號","Tel":"07-8126161","Latitude":"22.6238898","Longitude":"120.3230776","MarkerImg":"chingshin.png"},{"BranchId":"588","Name":"高雄市前區區(康定店)","Address":"高雄市前區區康定路11-1號","Tel":"07-8232345","Latitude":"22.6238898","Longitude":"120.3230776","MarkerImg":"chingshin.png"},{"BranchId":"589","Name":"高雄市前區區(復興)","Address":"高雄市前區區復興三路327號","Tel":"07-3388816","Latitude":"22.6238898","Longitude":"120.3230776","MarkerImg":"chingshin.png"},{"BranchId":"590","Name":"高雄市前區區(隆興店)","Address":"高雄市前區區瑞和街163號","Tel":"07-7610687","Latitude":"22.6238898","Longitude":"120.3230776","MarkerImg":"chingshin.png"},{"BranchId":"591","Name":"高雄市前區區(瑞隆店)","Address":"高雄市前區區瑞隆路326號","Tel":"07-7212945","Latitude":"22.6238898","Longitude":"120.3230776","MarkerImg":"chingshin.png"},{"BranchId":"592","Name":"高雄市美濃區(美濃二店)","Address":"高雄市美濃區中正路一段9號","Tel":"07-6818811","Latitude":"22.9019721","Longitude":"120.541347","MarkerImg":"chingshin.png"},{"BranchId":"593","Name":"高雄市美濃區(美濃店)","Address":"高雄市美濃區中興路一段764號","Tel":"07-6818811","Latitude":"22.8866337","Longitude":"120.5318269","MarkerImg":"chingshin.png"},{"BranchId":"594","Name":"高雄市茄萣區(仁愛店)","Address":"高雄市茄萣區仁愛路二段112號","Tel":"07-6921182","Latitude":"22.8965511","Longitude":"120.1849352","MarkerImg":"chingshin.png"},{"BranchId":"595","Name":"高雄市茄萣區(茄萣店)","Address":"高雄市茄萣區茄萣路二段466-1號","Tel":"07-6921256","Latitude":"22.905412","Longitude":"120.1835151","MarkerImg":"chingshin.png"},{"BranchId":"596","Name":"高雄市苓雅區(大統店)","Address":"高雄市苓雅區六合路25-2號","Tel":"07-2240588","Latitude":"22.632179","Longitude":"120.318573","MarkerImg":"chingshin.png"},{"BranchId":"597","Name":"高雄市苓雅區(正義店)","Address":"高雄市苓雅區正義路150號","Tel":"07-7492836","Latitude":"22.631239","Longitude":"120.3397148","MarkerImg":"chingshin.png"},{"BranchId":"598","Name":"高雄市苓雅區(永康店)","Address":"高雄市苓雅區文橫二路71號","Tel":"07-3310996","Latitude":"22.6168385","Longitude":"120.3059005","MarkerImg":"chingshin.png"},{"BranchId":"599","Name":"高雄市苓雅區(光華店)","Address":"高雄市苓雅區光華二路432號","Tel":"07-7136211","Latitude":"22.617719","Longitude":"120.318158","MarkerImg":"chingshin.png"},{"BranchId":"600","Name":"高雄市苓雅區(忠孝店)","Address":"高雄市苓雅區忠孝二路113號","Tel":"07-3301617","Latitude":"22.6206296","Longitude":"120.3076937","MarkerImg":"chingshin.png"},{"BranchId":"601","Name":"高雄市苓雅區(武慶店)","Address":"高雄市苓雅區武慶三路124號","Tel":"07-7211811","Latitude":"22.6210215","Longitude":"120.3318467","MarkerImg":"chingshin.png"},{"BranchId":"602","Name":"高雄市苓雅區(建國店)","Address":"高雄市苓雅區建國一路137之4號","Tel":"07-7275668","Latitude":"22.6320785","Longitude":"120.3309122","MarkerImg":"chingshin.png"},{"BranchId":"603","Name":"高雄市苓雅區(福德店)","Address":"高雄市苓雅區福德三路271號","Tel":"07-7113211","Latitude":"22.6272918","Longitude":"120.326838","MarkerImg":"chingshin.png"},{"BranchId":"604","Name":"高雄市梓官區(中崙店)","Address":"高雄市梓官區中崙路300號","Tel":"07-6170279","Latitude":"22.7613464","Longitude":"120.2711601","MarkerImg":"chingshin.png"},{"BranchId":"605","Name":"高雄市梓官區(蚵寮二店)","Address":"高雄市梓官區光明路169號","Tel":"07-6170923","Latitude":"22.7337003","Longitude":"120.2497552","MarkerImg":"chingshin.png"},{"BranchId":"606","Name":"高雄市梓官區(蚵寮店)","Address":"高雄市梓官區漁港一路146號","Tel":"07-6106161","Latitude":"22.7278848","Longitude":"120.2551831","MarkerImg":"chingshin.png"},{"BranchId":"607","Name":"高雄市鳥松區(神農店)","Address":"高雄市鳥松區神農路501號","Tel":"07-7332358","Latitude":"22.6596395","Longitude":"120.3754685","MarkerImg":"chingshin.png"},{"BranchId":"608","Name":"高雄市湖內區(大湖店)","Address":"高雄市湖內區大湖村民權路9-1號","Tel":"07-6931582","Latitude":"22.8894269","Longitude":"120.2442713","MarkerImg":"chingshin.png"},{"BranchId":"609","Name":"高雄市湖內區(東方店)","Address":"高雄市湖內區中山路二段233-2號","Tel":"07-6930582","Latitude":"22.9122853","Longitude":"120.2260967","MarkerImg":"chingshin.png"},{"BranchId":"610","Name":"高雄市湖內區(湖內店)","Address":"高雄市湖內區中正路一段526之1號","Tel":"07-6997745","Latitude":"22.9091725","Longitude":"120.2209911","MarkerImg":"chingshin.png"},{"BranchId":"611","Name":"高雄市新興區(七賢二店)","Address":"高雄市新興區七賢一路509號","Tel":"07-2380868","Latitude":"22.634374","Longitude":"120.3032084","MarkerImg":"chingshin.png"},{"BranchId":"612","Name":"高雄市新興區(八德店)","Address":"高雄市新興區八德二路15號","Tel":"07-2850881","Latitude":"22.6359695","Longitude":"120.3011984","MarkerImg":"chingshin.png"},{"BranchId":"613","Name":"高雄市新興區(中正店)","Address":"高雄市新興區林森一路174號","Tel":"07-2117789","Latitude":"22.6306053","Longitude":"120.3047427","MarkerImg":"chingshin.png"},{"BranchId":"614","Name":"高雄市新興區(新田店)","Address":"高雄市新興區新田路173號","Tel":"07-2826811","Latitude":"22.6219168","Longitude":"120.3029125","MarkerImg":"chingshin.png"},{"BranchId":"615","Name":"高雄市楠梓區(後昌店)","Address":"高雄市楠梓區後昌路143號","Tel":"07-3686677","Latitude":"22.7180564","Longitude":"120.3104427","MarkerImg":"chingshin.png"},{"BranchId":"616","Name":"高雄市楠梓區(清豐店)","Address":"高雄市楠梓區清豐二路76號","Tel":"07-3541515","Latitude":"22.7375156","Longitude":"120.3309894","MarkerImg":"chingshin.png"},{"BranchId":"617","Name":"高雄市楠梓區(楠梓二店)","Address":"高雄市楠梓區楠梓新路328號","Tel":"07-3529181","Latitude":"22.730041","Longitude":"120.327321","MarkerImg":"chingshin.png"},{"BranchId":"618","Name":"高雄市楠梓區(楠梓三店)","Address":"高雄市楠梓區興楠路299號","Tel":"07-3515918","Latitude":"22.7294719","Longitude":"120.3327409","MarkerImg":"chingshin.png"},{"BranchId":"619","Name":"高雄市楠梓區(楠梓德賢)","Address":"高雄市楠梓區德賢路232號","Tel":"07-3648181","Latitude":"22.7266212","Longitude":"120.3057135","MarkerImg":"chingshin.png"},{"BranchId":"620","Name":"高雄市楠梓區(德中店)","Address":"高雄市楠梓區德中路538號","Tel":"07-3625861","Latitude":"22.7290114","Longitude":"120.2730466","MarkerImg":"chingshin.png"},{"BranchId":"621","Name":"高雄市路竹區(竹滬店)","Address":"高雄市路竹區竹滬村華正路350號","Tel":"07-6983077","Latitude":"22.8598385","Longitude":"120.2293204","MarkerImg":"chingshin.png"},{"BranchId":"622","Name":"高雄市路竹區(路竹店)","Address":"高雄市路竹區中正路29號","Tel":"07-6968961","Latitude":"22.8572021","Longitude":"120.2611783","MarkerImg":"chingshin.png"},{"BranchId":"623","Name":"高雄市鼓山區(軍校二店)","Address":"高雄市鼓山區明誠三路690號","Tel":"07-5537568","Latitude":"22.6613156","Longitude":"120.2946719","MarkerImg":"chingshin.png"},{"BranchId":"624","Name":"高雄市鼓山區(華榮店)","Address":"高雄市鼓山區華榮路547號","Tel":"07-5504788","Latitude":"22.669976","Longitude":"120.293374","MarkerImg":"chingshin.png"},{"BranchId":"625","Name":"高雄市鼓山區(新疆店)","Address":"高雄市鼓山區九如四路1400號","Tel":"07-5312828","Latitude":"22.657928","Longitude":"120.279267","MarkerImg":"chingshin.png"},{"BranchId":"626","Name":"高雄市鼓山區(瑞豐店)","Address":"高雄市鼓山區裕誠路1075號","Tel":"07-5866301","Latitude":"22.6657126","Longitude":"120.3003117","MarkerImg":"chingshin.png"},{"BranchId":"627","Name":"高雄市鼓山區(龍德店)","Address":"高雄市鼓山區龍德路90號","Tel":"07-5551668","Latitude":"22.654216","Longitude":"120.300936","MarkerImg":"chingshin.png"},{"BranchId":"628","Name":"高雄市鼓山區(臨海店)","Address":"高雄市鼓山區臨海二路49-1號","Tel":"07-5328858","Latitude":"22.6230409","Longitude":"120.2717678","MarkerImg":"chingshin.png"},{"BranchId":"629","Name":"高雄市旗山區(延平店)","Address":"高雄市旗山區延平一路722之2號","Tel":"07-6627668","Latitude":"22.8831529","Longitude":"120.4831826","MarkerImg":"chingshin.png"},{"BranchId":"630","Name":"高雄市旗山區(旗山店)","Address":"高雄市旗山區延平一路516號","Tel":"07-6623861","Latitude":"22.889626","Longitude":"120.4832433","MarkerImg":"chingshin.png"},{"BranchId":"631","Name":"高雄市鳳山市(大明店)","Address":"高雄市鳳山市大明路164號","Tel":"07-7673286","Latitude":"22.6103353","Longitude":"120.3417184","MarkerImg":"chingshin.png"},{"BranchId":"632","Name":"高雄市鳳山市(五甲店)","Address":"高雄市鳳山市南華路102號","Tel":"07-7114111","Latitude":"22.601385","Longitude":"120.339249","MarkerImg":"chingshin.png"},{"BranchId":"633","Name":"高雄市鳳山市(文衡店)","Address":"高雄市鳳山市文衡路157號","Tel":"07-7771125","Latitude":"22.6388059","Longitude":"120.3562634","MarkerImg":"chingshin.png"},{"BranchId":"634","Name":"高雄市鳳山市(王生明店)","Address":"高雄市鳳山市中山東路5號","Tel":"07-7196711","Latitude":"22.62055","Longitude":"120.3634412","MarkerImg":"chingshin.png"},{"BranchId":"635","Name":"高雄市鳳山市(自強二店)","Address":"高雄市鳳山市五甲二路434號","Tel":"07-7685119","Latitude":"22.5981205","Longitude":"120.3357913","MarkerImg":"chingshin.png"},{"BranchId":"636","Name":"高雄市鳳山市(自強店)","Address":"高雄市鳳山市自強二路137號","Tel":"07-7682766 *2159","Latitude":"22.5963307","Longitude":"120.3272499","MarkerImg":"chingshin.png"},{"BranchId":"637","Name":"高雄市鳳山市(青年店)","Address":"高雄市鳳山市青年路一段337號","Tel":"07-7456766","Latitude":"22.6264264","Longitude":"120.3490608","MarkerImg":"chingshin.png"},{"BranchId":"638","Name":"高雄市鳳山區(鳳北店)","Address":"高雄市鳳山區經武路312號","Tel":"07-7105578","Latitude":"22.6390759","Longitude":"120.3647076","MarkerImg":"chingshin.png"},{"BranchId":"639","Name":"高雄市橋頭區(橋頭店)","Address":"高雄市橋頭區隆豐路213號","Tel":"07-6115886","Latitude":"22.7532827","Longitude":"120.3077386","MarkerImg":"chingshin.png"},{"BranchId":"640","Name":"高雄市燕巢區(鳳旗店)","Address":"高雄市燕巢區鳳旗路35號","Tel":"07-6153537","Latitude":"22.7541296","Longitude":"120.3547113","MarkerImg":"chingshin.png"},{"BranchId":"641","Name":"高雄市燕巢區(燕巢店)","Address":"高雄市燕巢區中民路663-9號之4","Tel":"07-6141975","Latitude":"22.7931151","Longitude":"120.358944","MarkerImg":"chingshin.png"},{"BranchId":"642","Name":"高雄市彌陀區(彌陀店)","Address":"高雄市彌陀區中正路36號","Tel":"07-6108216","Latitude":"22.7264922","Longitude":"120.2584827","MarkerImg":"chingshin.png"},{"BranchId":"643","Name":"高雄市鹽埕區(七賢三店)","Address":"高雄市鹽埕區大仁路157號","Tel":"07-5215886","Latitude":"22.6263868","Longitude":"120.2826398","MarkerImg":"chingshin.png"},{"BranchId":"644","Name":"高雄市鹽埕區(北端店)","Address":"高雄市鹽埕區新興街291號","Tel":"07-5318673","Latitude":"22.623659","Longitude":"120.2799881","MarkerImg":"chingshin.png"},{"BranchId":"645","Name":"基隆市(仁四店)","Address":"基隆市仁愛區仁四路58號","Tel":"02-24277676","Latitude":"25.128452","Longitude":"121.74118","MarkerImg":"chingshin.png"},{"BranchId":"646","Name":"基隆市七堵區(百三店)","Address":"基隆市七堵區百三街44號","Tel":"02-24526565","Latitude":"25.0817548","Longitude":"121.6957009","MarkerImg":"chingshin.png"},{"BranchId":"647","Name":"基隆市七堵區(明德店)","Address":"基隆市七堵區明德一路117號","Tel":"02-24561782","Latitude":"25.0978906","Longitude":"121.7149258","MarkerImg":"chingshin.png"},{"BranchId":"648","Name":"基隆市中正區(海大店)","Address":"基隆市中正區中正路782號","Tel":"02-24626266","Latitude":"25.151455","Longitude":"121.770658","MarkerImg":"chingshin.png"},{"BranchId":"649","Name":"基隆市安樂區(武嶺店)","Address":"基隆市中山區安一路66號","Tel":"02-24276761","Latitude":"25.131681","Longitude":"121.736329","MarkerImg":"chingshin.png"},{"BranchId":"650","Name":"基隆市孝三路(孝三店)","Address":"基隆市仁愛區孝三路96號","Tel":"02-24288800","Latitude":"25.131007","Longitude":"121.740167","MarkerImg":"chingshin.png"},{"BranchId":"651","Name":"基隆市信義區(東信店)","Address":"基隆市信義區東信路105號","Tel":"02-24661884","Latitude":"25.1280782","Longitude":"121.7645622","MarkerImg":"chingshin.png"},{"BranchId":"652","Name":"基隆市信義區(信二店)","Address":"基隆市信義區信二路185號","Tel":"02-24231587","Latitude":"25.1295176","Longitude":"121.750618","MarkerImg":"chingshin.png"},{"BranchId":"653","Name":"基隆市信義區(深溪店)","Address":"基隆市信義區深溪路119號","Tel":"02-24662203","Latitude":"25.1341702","Longitude":"121.7824626","MarkerImg":"chingshin.png"},{"BranchId":"654","Name":"基隆市義ㄧ路(義ㄧ店)","Address":"基隆市中正區義ㄧ路12號","Tel":"02-24250713","Latitude":"25.131104","Longitude":"121.744715","MarkerImg":"chingshin.png"},{"BranchId":"655","Name":"雲林縣二崙鄉(中山店)","Address":"雲林縣二崙鄉中山路207號","Tel":"05-5993388","Latitude":"23.7690185","Longitude":"120.4111786","MarkerImg":"chingshin.png"},{"BranchId":"656","Name":"雲林縣口湖鄉(中正店)","Address":"雲林縣口湖鄉中正路一段198號","Tel":"05-7891698","Latitude":"23.5824835","Longitude":"120.1849599","MarkerImg":"chingshin.png"},{"BranchId":"657","Name":"雲林縣土庫鎮(建國店)","Address":"雲林縣土庫鎮建國路98號","Tel":"05-6629330","Latitude":"23.6792949","Longitude":"120.3950996","MarkerImg":"chingshin.png"},{"BranchId":"658","Name":"雲林縣土庫鎮(馬光店)","Address":"雲林縣土庫鎮馬光路70號","Tel":"05-6653777","Latitude":"23.6986361","Longitude":"120.3675365","MarkerImg":"chingshin.png"},{"BranchId":"659","Name":"雲林縣大埤鄉(延平店)","Address":"雲林縣大埤鄉延平路三段6-15號","Tel":"05-5916591","Latitude":"23.6611791","Longitude":"120.473853","MarkerImg":"chingshin.png"},{"BranchId":"660","Name":"雲林縣元長鄉(中山店)","Address":"雲林縣元長鄉中山路22-10號","Tel":"05-7889600","Latitude":"23.6483023","Longitude":"120.3134825","MarkerImg":"chingshin.png"},{"BranchId":"661","Name":"雲林縣斗六市(中正店)","Address":"雲林縣斗六市中正路38號1F","Tel":"05-5350181","Latitude":"23.7093352","Longitude":"120.5444418","MarkerImg":"chingshin.png"},{"BranchId":"662","Name":"雲林縣斗六市(仁義店)","Address":"雲林縣斗六市仁義路8-11號","Tel":"05-5377930","Latitude":"23.688236","Longitude":"120.5383834","MarkerImg":"chingshin.png"},{"BranchId":"663","Name":"雲林縣斗六市(斗六店)","Address":"雲林縣斗六市雲林路一段33號","Tel":"05-5351906","Latitude":"23.7090505","Longitude":"120.5404963","MarkerImg":"chingshin.png"},{"BranchId":"664","Name":"雲林縣斗六市(石榴店)","Address":"雲林縣斗六市石榴路106-1號","Tel":"05-5571235","Latitude":"23.7231984","Longitude":"120.5841367","MarkerImg":"chingshin.png"},{"BranchId":"665","Name":"雲林縣斗六市(成功店)","Address":"雲林縣斗六市成功路314號","Tel":"05-5320816","Latitude":"23.7042475","Longitude":"120.5522521","MarkerImg":"chingshin.png"},{"BranchId":"666","Name":"雲林縣斗六市(西平店)","Address":"雲林縣斗六市西平路165-1號","Tel":"05-5371311","Latitude":"23.711977","Longitude":"120.535191","MarkerImg":"chingshin.png"},{"BranchId":"667","Name":"雲林縣斗六市(鎮北店)","Address":"雲林縣斗六市鎮北路180號","Tel":"05-5333469","Latitude":"23.716022","Longitude":"120.5429458","MarkerImg":"chingshin.png"},{"BranchId":"668","Name":"雲林縣斗六市(鎮南店)","Address":"雲林縣斗六市鎮南路104號","Tel":"05-5350918","Latitude":"23.7020216","Longitude":"120.5409028","MarkerImg":"chingshin.png"},{"BranchId":"669","Name":"雲林縣斗南鎮(文元店)","Address":"雲林縣斗南鎮延平路二段550-6號","Tel":"05-5966258","Latitude":"23.6718011","Longitude":"120.475849","MarkerImg":"chingshin.png"},{"BranchId":"670","Name":"雲林縣斗南鎮(延平店)","Address":"雲林縣斗南鎮延平路二段163號","Tel":"05-5961323","Latitude":"23.6801726","Longitude":"120.4810656","MarkerImg":"chingshin.png"},{"BranchId":"671","Name":"雲林縣水林鄉(水林店)","Address":"雲林縣水林鄉水林路69號","Tel":"05-7857885","Latitude":"23.5722247","Longitude":"120.2481196","MarkerImg":"chingshin.png"},{"BranchId":"672","Name":"雲林縣北港鎮(北港二店)","Address":"雲林縣北港鎮民享路2號","Tel":"05-7731166","Latitude":"23.5753318","Longitude":"120.3019206","MarkerImg":"chingshin.png"},{"BranchId":"673","Name":"雲林縣北港鎮(北港店)","Address":"雲林縣北港鎮義民路51號","Tel":"05-7731883","Latitude":"23.5680529","Longitude":"120.3021968","MarkerImg":"chingshin.png"},{"BranchId":"674","Name":"雲林縣台西鄉(民族店)","Address":"雲林縣台西鄉民族路19號","Tel":"05-6982586","Latitude":"23.6934468","Longitude":"120.1985731","MarkerImg":"chingshin.png"},{"BranchId":"675","Name":"雲林縣四湖鄉(中正店)","Address":"雲林縣四湖鄉中正路418號","Tel":"05-7872999","Latitude":"23.6348732","Longitude":"120.2251897","MarkerImg":"chingshin.png"},{"BranchId":"676","Name":"雲林縣西螺鎮(西螺公正)","Address":"雲林縣西螺鎮中山路91號","Tel":"05-5878686","Latitude":"23.7999629","Longitude":"120.4622259","MarkerImg":"chingshin.png"},{"BranchId":"677","Name":"雲林縣西螺鎮(新社店)","Address":"雲林縣西螺鎮新社路321-41號","Tel":"05-5876687","Latitude":"23.7836017","Longitude":"120.4463491","MarkerImg":"chingshin.png"},{"BranchId":"678","Name":"雲林縣東勢鄉(東勢店)","Address":"雲林縣東勢鄉康安路63號","Tel":"05-6993388","Latitude":"23.6764133","Longitude":"120.2551343","MarkerImg":"chingshin.png"},{"BranchId":"679","Name":"雲林縣林內鄉(中正店)","Address":"雲林縣林內鄉中正路381號","Tel":"05-5893252","Latitude":"23.7553995","Longitude":"120.6131251","MarkerImg":"chingshin.png"},{"BranchId":"680","Name":"雲林縣虎尾鎮(工專店)","Address":"雲林縣虎尾鎮工專路92號","Tel":"05-6327575","Latitude":"23.7015361","Longitude":"120.4254039","MarkerImg":"chingshin.png"},{"BranchId":"681","Name":"雲林縣虎尾鎮(中正店)","Address":"雲林縣虎尾鎮中正路294號","Tel":"05-6362366","Latitude":"23.7046733","Longitude":"120.4298775","MarkerImg":"chingshin.png"},{"BranchId":"682","Name":"雲林縣虎尾鎮(仁愛店)","Address":"雲林縣虎尾鎮中正路91號","Tel":"05-6337565","Latitude":"23.7085488","Longitude":"120.434621","MarkerImg":"chingshin.png"},{"BranchId":"683","Name":"雲林縣虎尾鎮(光復店)","Address":"雲林縣虎尾鎮光復路381號","Tel":"05-6332728","Latitude":"23.7099513","Longitude":"120.43813","MarkerImg":"chingshin.png"},{"BranchId":"684","Name":"雲林縣虎尾鎮(虎尾店)","Address":"雲林縣虎尾鎮林森路ㄧ段411號","Tel":"05-6365586","Latitude":"23.7109088","Longitude":"120.4355754","MarkerImg":"chingshin.png"},{"BranchId":"685","Name":"雲林縣崙背鄉(中山店)","Address":"雲林縣崙背鄉中山路242號","Tel":"05-6969882","Latitude":"23.7609595","Longitude":"120.3545117","MarkerImg":"chingshin.png"},{"BranchId":"686","Name":"雲林縣麥寮鄉(中興店)","Address":"雲林縣麥寮鄉中興路65號","Tel":"05-6938976","Latitude":"23.7519997","Longitude":"120.2516184","MarkerImg":"chingshin.png"},{"BranchId":"687","Name":"雲林縣麥寮鄉(光復店)","Address":"雲林縣麥寮鄉光復路72號","Tel":"05-6938123","Latitude":"23.7483426","Longitude":"120.2564088","MarkerImg":"chingshin.png"},{"BranchId":"688","Name":"雲林縣麥寮鄉(雲三店)","Address":"雲林縣麥寮鄉雲林縣麥寮鄉六輕工業路470-12號","Tel":"05-6915166","Latitude":"23.7774603","Longitude":"120.2397336","MarkerImg":"chingshin.png"},{"BranchId":"689","Name":"雲林縣莿桐鄉(中山店)","Address":"雲林縣莿桐鄉中山路145號","Tel":"05-5848588","Latitude":"23.7580492","Longitude":"120.4999378","MarkerImg":"chingshin.png"},{"BranchId":"690","Name":"雲林縣褒忠鄉(中正店)","Address":"雲林縣褒忠鄉中正路146號","Tel":"05-6971445","Latitude":"23.695291","Longitude":"120.313438","MarkerImg":"chingshin.png"},{"BranchId":"691","Name":"台北市中和市(華新店)","Address":"新北市中和區華新街117號","Tel":"02-29479666","Latitude":"24.9819708","Longitude":"121.5068384","MarkerImg":"chingshin.png"},{"BranchId":"692","Name":"台北市樹林鎮(佳園店)","Address":"新北市樹林區佳園路一段71-1號","Tel":"02-89707258","Latitude":"24.9703321","Longitude":"121.3932736","MarkerImg":"chingshin.png"},{"BranchId":"693","Name":"新北市八里鄉(中山店)","Address":"新北市八里鄉中山路二段181號","Tel":"02-26107577","Latitude":"25.1498205","Longitude":"121.4041966","MarkerImg":"chingshin.png"},{"BranchId":"694","Name":"新北市三芝區(淡金店)","Address":"新北市三芝區淡金路二段14號","Tel":"02-26360700","Latitude":"25.2595656","Longitude":"121.5025216","MarkerImg":"chingshin.png"},{"BranchId":"695","Name":"新北市三重市(力行店)","Address":"新北市三重市力行路二段119號","Tel":"02-82839559","Latitude":"25.0763999","Longitude":"121.4830181","MarkerImg":"chingshin.png"},{"BranchId":"696","Name":"新北市三重市(三和店)","Address":"新北市三重市三和路四段197號","Tel":"02-22809233","Latitude":"25.079312","Longitude":"121.482185","MarkerImg":"chingshin.png"},{"BranchId":"697","Name":"新北市三重市(中央店)","Address":"新北市三重區重新路一段98號","Tel":"02-29742312","Latitude":"25.0633123","Longitude":"121.5013061","MarkerImg":"chingshin.png"},{"BranchId":"698","Name":"新北市三重市(中正北店)","Address":"新北市三重市中正北路252號","Tel":"02-29881551","Latitude":"25.068138","Longitude":"121.481387","MarkerImg":"chingshin.png"},{"BranchId":"699","Name":"新北市三重市(中華店)","Address":"新北市三重市中華路71號","Tel":"02-89838005","Latitude":"25.062483","Longitude":"121.483721","MarkerImg":"chingshin.png"},{"BranchId":"700","Name":"新北市三重市(中興店)","Address":"新北市三重市中正北路413-4號","Tel":"02-29866505","Latitude":"25.0722347","Longitude":"121.4709092","MarkerImg":"chingshin.png"},{"BranchId":"701","Name":"新北市三重市(五華店)","Address":"新北市三重市五華街136號之1","Tel":"02-29715618","Latitude":"25.0837313","Longitude":"121.4915231","MarkerImg":"chingshin.png"},{"BranchId":"702","Name":"新北市三重市(仁愛店)","Address":"新北市三重市自強路五段26號","Tel":"02-29715561","Latitude":"25.0808324","Longitude":"121.4927354","MarkerImg":"chingshin.png"},{"BranchId":"703","Name":"新北市三重市(文化北店)","Address":"新北市三重市文化北路100號","Tel":"02-89855151","Latitude":"25.066184","Longitude":"121.498546","MarkerImg":"chingshin.png"},{"BranchId":"704","Name":"新北市三重市(正義北店)","Address":"新北市三重市正義北路219號","Tel":"02-29872998","Latitude":"25.0688181","Longitude":"121.496108","MarkerImg":"chingshin.png"},{"BranchId":"705","Name":"新北市三重市(正義南店)","Address":"新北市三重市正義南路35號","Tel":"02-29782929","Latitude":"25.0609892","Longitude":"121.4979707","MarkerImg":"chingshin.png"},{"BranchId":"706","Name":"新北市三重市(光明店)","Address":"新北市三重市光明路67-1號","Tel":"02-29729559","Latitude":"25.0575221","Longitude":"121.4917476","MarkerImg":"chingshin.png"},{"BranchId":"707","Name":"新北市三重市(自強店)","Address":"新北市三重市自強路一段314號","Tel":"02-29881938","Latitude":"25.068335","Longitude":"121.49104","MarkerImg":"chingshin.png"},{"BranchId":"708","Name":"新北市三重市(重陽店)","Address":"新北市三重市重陽路一段71號","Tel":"02-29889932","Latitude":"25.05881","Longitude":"121.486967","MarkerImg":"chingshin.png"},{"BranchId":"709","Name":"新北市三重市(溪尾店)","Address":"新北市三重市溪尾街243號","Tel":"02-29883829","Latitude":"25.0814947","Longitude":"121.4881142","MarkerImg":"chingshin.png"},{"BranchId":"710","Name":"新北市三重區(長壽店)","Address":"新北市三重區三和路二段65號","Tel":"02-29771000","Latitude":"25.067983","Longitude":"121.500314","MarkerImg":"chingshin.png"},{"BranchId":"711","Name":"新北市三峽區(大義店)","Address":"新北市三峽區大義路11號","Tel":"02-26742329","Latitude":"24.9465403","Longitude":"121.3774603","MarkerImg":"chingshin.png"},{"BranchId":"712","Name":"新北市三峽鎮(中華店)","Address":"新北市三峽鎮中華路21號1樓","Tel":"02-26747547","Latitude":"24.9316019","Longitude":"121.3733","MarkerImg":"chingshin.png"},{"BranchId":"713","Name":"新北市三峽鎮(文化店)","Address":"新北市三峽鎮文化路16號","Tel":"02-26742202","Latitude":"24.9358129","Longitude":"121.373309","MarkerImg":"chingshin.png"},{"BranchId":"714","Name":"新北市三峽鎮(民生店)","Address":"新北市三峽鎮和平街103號","Tel":"02-26742212","Latitude":"24.938113","Longitude":"121.370173","MarkerImg":"chingshin.png"},{"BranchId":"715","Name":"新北市土城市(中央店)","Address":"新北市土城市中央路二段328號","Tel":"02-22637528","Latitude":"24.9724022","Longitude":"121.4401538","MarkerImg":"chingshin.png"},{"BranchId":"716","Name":"新北市土城市(安和店)","Address":"新北市土城市延和路35號","Tel":"02-22631891","Latitude":"24.989427","Longitude":"121.465908","MarkerImg":"chingshin.png"},{"BranchId":"717","Name":"新北市土城市(延吉店)","Address":"新北市土城市延吉街90號","Tel":"02-82615779","Latitude":"24.986505","Longitude":"121.470633","MarkerImg":"chingshin.png"},{"BranchId":"718","Name":"新北市土城市(清水店)","Address":"新北市土城市清水路168號","Tel":"02-22637378","Latitude":"24.98142","Longitude":"121.459919","MarkerImg":"chingshin.png"},{"BranchId":"719","Name":"新北市土城市(裕生店)","Address":"新北市土城市裕生路6號","Tel":"02-22638618","Latitude":"24.9878588","Longitude":"121.448271","MarkerImg":"chingshin.png"},{"BranchId":"720","Name":"新北市土城區(頂埔店)","Address":"新北市土城市區中央路四段89號","Tel":"02-22690022","Latitude":"24.9580054","Longitude":"121.4170157","MarkerImg":"chingshin.png"},{"BranchId":"721","Name":"新北市土城區(學府店)","Address":"新北市土城區學府路一段144巷2號","Tel":"02-22635050","Latitude":"24.987331","Longitude":"121.454999","MarkerImg":"chingshin.png"},{"BranchId":"722","Name":"新北市中和市(中山店)","Address":"新北市中和市中山路二段664號","Tel":"02-82275151","Latitude":"25.005953","Longitude":"121.480414","MarkerImg":"chingshin.png"},{"BranchId":"723","Name":"新北市中和市(南工店)","Address":"新北市中和市中和路198號","Tel":"02-22428786","Latitude":"24.999613","Longitude":"121.505228","MarkerImg":"chingshin.png"},{"BranchId":"724","Name":"新北市中和市(員山二店)","Address":"新北市中和市員山路146號","Tel":"02-22236399","Latitude":"24.996991","Longitude":"121.481392","MarkerImg":"chingshin.png"},{"BranchId":"725","Name":"新北市中和市(員山店)","Address":"新北市中和市員山路357號","Tel":"02-22251798","Latitude":"25.001999","Longitude":"121.481168","MarkerImg":"chingshin.png"},{"BranchId":"726","Name":"新北市中和市(泰和店)","Address":"新北市中和市泰和街41號","Tel":"02-22431599","Latitude":"24.9993899","Longitude":"121.4991591","MarkerImg":"chingshin.png"},{"BranchId":"727","Name":"新北市中和市(漢生店)","Address":"新北市中和市中山路三段194號","Tel":"02-82277898","Latitude":"25.0065651","Longitude":"121.4720493","MarkerImg":"chingshin.png"},{"BranchId":"728","Name":"新北市中和市(德光店)","Address":"新北市中和市德光路95號","Tel":"02-29511488","Latitude":"25.0033112","Longitude":"121.4685988","MarkerImg":"chingshin.png"},{"BranchId":"729","Name":"新北市中和市(橋和店)","Address":"新北市中和市橋和路105號","Tel":"02-82454567","Latitude":"25.0056544","Longitude":"121.4909259","MarkerImg":"chingshin.png"},{"BranchId":"730","Name":"新北市中和市(興南店)","Address":"新北市中和市興南路1段98號","Tel":"02-29455299","Latitude":"24.9890561","Longitude":"121.5097241","MarkerImg":"chingshin.png"},{"BranchId":"731","Name":"新北市中和區(連城店)","Address":"新北市中和市連城路315之2號","Tel":"02-22266998","Latitude":"24.99614","Longitude":"121.489241","MarkerImg":"chingshin.png"},{"BranchId":"732","Name":"新北市中和區(圓通店)","Address":"新北市中和區圓通路270號","Tel":"02-22462255","Latitude":"24.9908531","Longitude":"121.4927438","MarkerImg":"chingshin.png"},{"BranchId":"733","Name":"新北市五股鄉(工商店)","Address":"新北市五股鄉工商路96號","Tel":"02-82954587","Latitude":"25.0852756","Longitude":"121.4377021","MarkerImg":"chingshin.png"},{"BranchId":"734","Name":"新北市五股鄉(凌雲店)","Address":"新北市五股鄉成泰路三段482號","Tel":"02-22936636","Latitude":"25.0957","Longitude":"121.4485899","MarkerImg":"chingshin.png"},{"BranchId":"735","Name":"新北市永和市(中正店)","Address":"新北市中和市自立路187號","Tel":"02-29455118","Latitude":"24.991435","Longitude":"121.524015","MarkerImg":"chingshin.png"},{"BranchId":"736","Name":"新北市永和市(中和店)","Address":"新北市永和市中和路431號","Tel":"02-32339292","Latitude":"25.0010568","Longitude":"121.509486","MarkerImg":"chingshin.png"},{"BranchId":"737","Name":"新北市永和市(永貞店)","Address":"新北市永和市永貞路392號","Tel":"02-29272298","Latitude":"25.0074583","Longitude":"121.5094162","MarkerImg":"chingshin.png"},{"BranchId":"738","Name":"新北市永和市(竹林店)","Address":"新北市永和市竹林路49號","Tel":"02-89252422","Latitude":"25.0140353","Longitude":"121.5180793","MarkerImg":"chingshin.png"},{"BranchId":"739","Name":"新北市永和市(秀朗二店)","Address":"新北市永和市得和路107號","Tel":"02-29235288","Latitude":"25.0004","Longitude":"121.518319","MarkerImg":"chingshin.png"},{"BranchId":"740","Name":"新北市永和市(得和店)","Address":"新北市永和市得和路417號","Tel":"02-29255979","Latitude":"24.9992134","Longitude":"121.5260408","MarkerImg":"chingshin.png"},{"BranchId":"741","Name":"新北市永和市(福和店)","Address":"新北市永和市永和路一段178號","Tel":"02-32335977","Latitude":"25.0088995","Longitude":"121.5142467","MarkerImg":"chingshin.png"},{"BranchId":"742","Name":"新北市汐止市(忠孝東店)","Address":"新北市汐止市忠孝東路394號","Tel":"02-86478282","Latitude":"25.0704599","Longitude":"121.665876","MarkerImg":"chingshin.png"},{"BranchId":"743","Name":"新北市汐止市(康寧店)","Address":"新北市汐止市康寧街390號","Tel":"02-26957191","Latitude":"25.0673516","Longitude":"121.6271142","MarkerImg":"chingshin.png"},{"BranchId":"744","Name":"新北市汐止市(新台店)","Address":"新北市汐止市大同路二段342號","Tel":"02-26473111","Latitude":"25.0670156","Longitude":"121.6566225","MarkerImg":"chingshin.png"},{"BranchId":"745","Name":"新北市汐止區(樟樹店)","Address":"新北市汐止區樟樹一路139巷2號","Tel":"","Latitude":"25.0661441","Longitude":"121.642223","MarkerImg":"chingshin.png"},{"BranchId":"746","Name":"新北市林口區(仁愛店)","Address":"新北市林口區仁愛路二段15號","Tel":"02-26014455","Latitude":"25.0754864","Longitude":"121.3845863","MarkerImg":"chingshin.png"},{"BranchId":"747","Name":"新北市林口鄉(工六店)","Address":"新北市林口鄉中正路10號","Tel":"02-86012022","Latitude":"25.0774693","Longitude":"121.3963811","MarkerImg":"chingshin.png"},{"BranchId":"748","Name":"新北市林口鄉(忠孝店)","Address":"新北市林口鄉忠孝路486號","Tel":"02-26005757","Latitude":"25.0709489","Longitude":"121.3697465","MarkerImg":"chingshin.png"},{"BranchId":"749","Name":"新北市板橋市(三民店)","Address":"新北市板橋市三民路二段102巷1號1樓(511.592.967)","Tel":"02-29539292","Latitude":"25.0168103","Longitude":"121.4789555","MarkerImg":"chingshin.png"},{"BranchId":"750","Name":"新北市板橋市(中山店)","Address":"新北市板橋市中山路二段183號","Tel":"02-29642877","Latitude":"25.0169839","Longitude":"121.476228","MarkerImg":"chingshin.png"},{"BranchId":"751","Name":"新北市板橋市(中正店)","Address":"新北市板橋市漢生東路179號","Tel":"02-89532218","Latitude":"25.0119982","Longitude":"121.4695611","MarkerImg":"chingshin.png"},{"BranchId":"752","Name":"新北市板橋市(四維店)","Address":"新北市板橋市四維路157號","Tel":"02-82581212","Latitude":"25.0256859","Longitude":"121.464695","MarkerImg":"chingshin.png"},{"BranchId":"753","Name":"新北市板橋市(民治店)","Address":"新北市板橋市民治街130號","Tel":"02-22561601","Latitude":"25.031006","Longitude":"121.477754","MarkerImg":"chingshin.png"},{"BranchId":"754","Name":"新北市板橋市(民權店)","Address":"新北市板橋市民權路25號","Tel":"02-29587522","Latitude":"25.010656","Longitude":"121.462275","MarkerImg":"chingshin.png"},{"BranchId":"755","Name":"新北市板橋市(光復店)","Address":"新北市板橋市中山路二段350號 (511.592.967)","Tel":"02-29523868","Latitude":"25.019774","Longitude":"121.4815244","MarkerImg":"chingshin.png"},{"BranchId":"756","Name":"新北市板橋市(金華店)","Address":"新北市板橋市中正路291號","Tel":"02-29671886","Latitude":"25.01936","Longitude":"121.455351","MarkerImg":"chingshin.png"},{"BranchId":"757","Name":"新北市板橋市(長江店)","Address":"新北市板橋市長江路二段8號","Tel":"02-22528466","Latitude":"25.0328581","Longitude":"121.4700347","MarkerImg":"chingshin.png"},{"BranchId":"758","Name":"新北市板橋市(南雅南店)","Address":"新北市板橋市南雅南路一段81號 (511.592.967)","Tel":"02-29601166","Latitude":"25.0054635","Longitude":"121.4557147","MarkerImg":"chingshin.png"},{"BranchId":"759","Name":"新北市板橋市(重慶店)","Address":"新北市板橋市重慶路232號","Tel":"02-89530676","Latitude":"25.0015758","Longitude":"121.46278","MarkerImg":"chingshin.png"},{"BranchId":"760","Name":"新北市板橋市(莒光店)","Address":"新北市板橋市莒光路31號","Tel":"02-82585111","Latitude":"25.024565","Longitude":"121.470296","MarkerImg":"chingshin.png"},{"BranchId":"761","Name":"新北市板橋市(裕民店)","Address":"新北市板橋市裕民街102號","Tel":"02-22586680","Latitude":"25.0280053","Longitude":"121.4599532","MarkerImg":"chingshin.png"},{"BranchId":"762","Name":"新北市板橋市(漢生西店)","Address":"新北市板橋市漢生西路84號","Tel":"02-22533389","Latitude":"25.019399","Longitude":"121.4628781","MarkerImg":"chingshin.png"},{"BranchId":"763","Name":"新北市板橋市(廣明店)","Address":"新北市板橋市四川路二段47巷2弄1號","Tel":"02-89678282","Latitude":"24.994772","Longitude":"121.4540892","MarkerImg":"chingshin.png"},{"BranchId":"764","Name":"新北市板橋市(篤行店)","Address":"新北市板橋市篤行路二段145號","Tel":"02-86755155","Latitude":"24.988152","Longitude":"121.429957","MarkerImg":"chingshin.png"},{"BranchId":"765","Name":"新北市板橋市(館前西店)","Address":"新北市板橋市館前西路59號","Tel":"02-29666108","Latitude":"25.0068516","Longitude":"121.4577226","MarkerImg":"chingshin.png"},{"BranchId":"766","Name":"新北市板橋區(大仁店)","Address":"新北市板橋區大仁街118號","Tel":"02-89651558","Latitude":"25.0157645","Longitude":"121.452556","MarkerImg":"chingshin.png"},{"BranchId":"767","Name":"新北市板橋區(松柏店)","Address":"新北市板橋區松柏街4號","Tel":"02-22501177","Latitude":"25.029447","Longitude":"121.4740309","MarkerImg":"chingshin.png"},{"BranchId":"768","Name":"新北市板橋區(僑中店)","Address":"新北市板橋區僑中一街124巷1弄1號","Tel":"02-22711155","Latitude":"25.012074","Longitude":"121.4458019","MarkerImg":"chingshin.png"},{"BranchId":"769","Name":"新北市板橋區(龍興店)","Address":"新北市板橋區龍興街65巷2號","Tel":"02-82751077","Latitude":"25.00147","Longitude":"121.4436343","MarkerImg":"chingshin.png"},{"BranchId":"770","Name":"新北市金山區(中山店)","Address":"新北市金山區中山路127號","Tel":"02-24987528","Latitude":"25.219796","Longitude":"121.6393665","MarkerImg":"chingshin.png"},{"BranchId":"771","Name":"新北市泰山鄉(明志二店)","Address":"新北市泰山鄉明志路二段63號","Tel":"02-22977188","Latitude":"25.0486919","Longitude":"121.427348","MarkerImg":"chingshin.png"},{"BranchId":"772","Name":"新北市泰山鄉(明志店)","Address":"新北市泰山鄉明志路三段178號","Tel":"02-29047979","Latitude":"25.0364629","Longitude":"121.4227483","MarkerImg":"chingshin.png"},{"BranchId":"773","Name":"新北市泰山鄉(泰林店)","Address":"新北市泰山鄉泰林路二段195號","Tel":"02-29002662","Latitude":"25.0528196","Longitude":"121.4391868","MarkerImg":"chingshin.png"},{"BranchId":"774","Name":"新北市淡水區(淡大店)","Address":"新北市淡水區北新路182巷28號","Tel":"02-26297899","Latitude":"25.177331","Longitude":"121.445407","MarkerImg":"chingshin.png"},{"BranchId":"775","Name":"新北市淡水鎮(大忠店)","Address":"新北市淡水鎮中山北路二段177號","Tel":"02-26263277","Latitude":"25.1847683","Longitude":"121.4440816","MarkerImg":"chingshin.png"},{"BranchId":"776","Name":"新北市淡水鎮(中山店)","Address":"新北市淡水鎮中山路166號","Tel":"02-26265877","Latitude":"25.173809","Longitude":"121.4412687","MarkerImg":"chingshin.png"},{"BranchId":"777","Name":"新北市淡水鎮(中正店)","Address":"新北市淡水鎮中正路95號","Tel":"02-26260816","Latitude":"25.169749","Longitude":"121.4405902","MarkerImg":"chingshin.png"},{"BranchId":"778","Name":"新北市淡水鎮(民族店)","Address":"新北市淡水鎮民族路29巷2號","Tel":"02-88092123","Latitude":"25.1368991","Longitude":"121.4610875","MarkerImg":"chingshin.png"},{"BranchId":"779","Name":"新北市淡水鎮(英專店)","Address":"新北市淡水鎮英專路94號","Tel":"02-26297722","Latitude":"25.1716451","Longitude":"121.4458593","MarkerImg":"chingshin.png"},{"BranchId":"780","Name":"新北市淡水鎮(淡金店)","Address":"新北市淡水鎮淡金路四段536號","Tel":"02-28013088","Latitude":"25.226735","Longitude":"121.451979","MarkerImg":"chingshin.png"},{"BranchId":"781","Name":"新北市深坑鄉(北深店)","Address":"新北市深坑鄉北深路三段214號","Tel":"02-26620222","Latitude":"25.0023815","Longitude":"121.6042723","MarkerImg":"chingshin.png"},{"BranchId":"782","Name":"新北市新店市(三民店)","Address":"新北市新店市中正路415號","Tel":"02-89118580","Latitude":"24.9778118","Longitude":"121.5341432","MarkerImg":"chingshin.png"},{"BranchId":"783","Name":"新北市新店市(北新店)","Address":"新北市新店市北新路3段50號","Tel":"02-29113966","Latitude":"24.9798719","Longitude":"121.54231","MarkerImg":"chingshin.png"},{"BranchId":"784","Name":"新北市新店市(安康店)","Address":"新北市新店市安康路二段146-1號","Tel":"02-86661032","Latitude":"24.9615186","Longitude":"121.5122767","MarkerImg":"chingshin.png"},{"BranchId":"785","Name":"新北市新店市(碧潭店)","Address":"新北市新店市北新路一段67號","Tel":"02-29178811","Latitude":"24.9601189","Longitude":"121.5381956","MarkerImg":"chingshin.png"},{"BranchId":"786","Name":"新北市新店市(寶慶店)","Address":"新北市新店市寶慶街76號","Tel":"02-29130377","Latitude":"24.9868518","Longitude":"121.5416453","MarkerImg":"chingshin.png"},{"BranchId":"787","Name":"新北市新莊市(八德店)","Address":"新北市新莊市八德街94號","Tel":"02-22048688","Latitude":"25.022169","Longitude":"121.424529","MarkerImg":"chingshin.png"},{"BranchId":"788","Name":"新北市新莊市(中平店)","Address":"新北市新莊市中平路126號","Tel":"02-29926866","Latitude":"25.0465954","Longitude":"121.4449198","MarkerImg":"chingshin.png"},{"BranchId":"789","Name":"新北市新莊市(中原店)","Address":"新北市新莊市中原路337號","Tel":"02-89936890","Latitude":"25.0541486","Longitude":"121.4456473","MarkerImg":"chingshin.png"},{"BranchId":"790","Name":"新北市新莊市(中港店)","Address":"新北市新莊市中港路302號","Tel":"02-22762121","Latitude":"25.044942","Longitude":"121.452854","MarkerImg":"chingshin.png"},{"BranchId":"791","Name":"新北市新莊市(五權店)","Address":"新北市新莊市五權ㄧ路68號1樓","Tel":"02-22992661","Latitude":"25.066418","Longitude":"121.458542","MarkerImg":"chingshin.png"},{"BranchId":"792","Name":"新北市新莊市(化成店)","Address":"新北市新莊市化成路488-3號","Tel":"02-29902888","Latitude":"25.0518732","Longitude":"121.4663669","MarkerImg":"chingshin.png"},{"BranchId":"793","Name":"新北市新莊市(天祥店)","Address":"新北市新莊市天祥街100號","Tel":"02-29012566","Latitude":"25.0295414","Longitude":"121.4152311","MarkerImg":"chingshin.png"},{"BranchId":"794","Name":"新北市新莊市(民安西店)","Address":"新北市新莊市民安西路120號1樓","Tel":"02-22023998","Latitude":"25.018516","Longitude":"121.426726","MarkerImg":"chingshin.png"},{"BranchId":"795","Name":"新北市新莊市(民樂店)","Address":"新北市新莊市民樂街95號","Tel":"02-29984688","Latitude":"25.0436452","Longitude":"121.4578178","MarkerImg":"chingshin.png"},{"BranchId":"796","Name":"新北市新莊市(幸福店)","Address":"新北市新莊市幸福路663號","Tel":"02-29931122","Latitude":"25.0490897","Longitude":"121.4508888","MarkerImg":"chingshin.png"},{"BranchId":"797","Name":"新北市新莊市(昌隆店)","Address":"新北市新莊市昌隆街24號","Tel":"02-29965111","Latitude":"25.0507001","Longitude":"121.453904","MarkerImg":"chingshin.png"},{"BranchId":"798","Name":"新北市新莊市(建中店)","Address":"新北市新莊市建中街49號","Tel":"02-29921987","Latitude":"25.0370671","Longitude":"121.4482062","MarkerImg":"chingshin.png"},{"BranchId":"799","Name":"新北市新莊市(建安店)","Address":"新北市新莊市建安街82號1樓","Tel":"02-22041384","Latitude":"25.0242057","Longitude":"121.4264481","MarkerImg":"chingshin.png"},{"BranchId":"800","Name":"新北市新莊市(富國店)","Address":"新北市新莊市富國路76號","Tel":"02-29013399","Latitude":"25.0257553","Longitude":"121.4199529","MarkerImg":"chingshin.png"},{"BranchId":"801","Name":"新北市新莊市(新泰店)","Address":"新北市新莊市新泰路323號","Tel":"02-29985566","Latitude":"25.0415194","Longitude":"121.4449664","MarkerImg":"chingshin.png"},{"BranchId":"802","Name":"新北市新莊市(新豐店)","Address":"新北市新莊市新泰路79號","Tel":"02-22048133","Latitude":"25.034417","Longitude":"121.4492022","MarkerImg":"chingshin.png"},{"BranchId":"803","Name":"新北市新莊市(福壽店)","Address":"新北市新莊市福壽街8號","Tel":"02-29907961","Latitude":"25.0475469","Longitude":"121.4578007","MarkerImg":"chingshin.png"},{"BranchId":"804","Name":"新北市新莊市(輔大店)","Address":"新北市新莊市中正路516-36號","Tel":"02-29083678","Latitude":"25.03226","Longitude":"121.432601","MarkerImg":"chingshin.png"},{"BranchId":"805","Name":"新北市新莊市(豐年店)","Address":"新北市新莊市豐年街14號","Tel":"02-22048820","Latitude":"25.0327397","Longitude":"121.4461748","MarkerImg":"chingshin.png"},{"BranchId":"806","Name":"新北市瑞芳鎮(明燈店)","Address":"新北市瑞芳鎮明燈路三段45號","Tel":"02-24977676","Latitude":"25.1079667","Longitude":"121.8066423","MarkerImg":"chingshin.png"},{"BranchId":"807","Name":"新北市樹林市(中山店)","Address":"新北市樹林市中山路一段33號","Tel":"02-86754063","Latitude":"24.9928493","Longitude":"121.4243567","MarkerImg":"chingshin.png"},{"BranchId":"808","Name":"新北市樹林市(太元店)","Address":"新北市樹林市太元街59號","Tel":"02-86866165","Latitude":"24.9788093","Longitude":"121.4190601","MarkerImg":"chingshin.png"},{"BranchId":"809","Name":"新北市樹林市(育英店)","Address":"新北市樹林市育英街42號","Tel":"02-26824567","Latitude":"24.989294","Longitude":"121.421459","MarkerImg":"chingshin.png"},{"BranchId":"810","Name":"新北市樹林市(鎮前店)","Address":"新北市樹林市鎮前街62號","Tel":"02-26821608","Latitude":"24.9923869","Longitude":"121.425493","MarkerImg":"chingshin.png"},{"BranchId":"811","Name":"新北市樹林區(大保店)","Address":"新北市樹林區保安路一段263號","Tel":"02-26753135","Latitude":"24.9942729","Longitude":"121.4250818","MarkerImg":"chingshin.png"},{"BranchId":"812","Name":"新北市樹林區(俊英店)","Address":"新北市樹林區俊英街137號","Tel":"02-26888218","Latitude":"25.011634","Longitude":"121.4242675","MarkerImg":"chingshin.png"},{"BranchId":"813","Name":"新北市蘆洲市(中華店)","Address":"新北市蘆洲市中華街25號","Tel":"02-22830707","Latitude":"25.0815056","Longitude":"121.4634175","MarkerImg":"chingshin.png"},{"BranchId":"814","Name":"新北市蘆洲市(民族店)","Address":"新北市蘆洲市民族路208號","Tel":"02-22882621","Latitude":"25.0876142","Longitude":"121.4797876","MarkerImg":"chingshin.png"},{"BranchId":"815","Name":"新北市蘆洲市(光華店)","Address":"新北市蘆洲市光華路85號","Tel":"02-22830005","Latitude":"25.08252","Longitude":"121.467741","MarkerImg":"chingshin.png"},{"BranchId":"816","Name":"新北市蘆洲市(復興店)","Address":"新北市蘆洲市復興路104號1樓","Tel":"02-22826856","Latitude":"25.0870743","Longitude":"121.4760748","MarkerImg":"chingshin.png"},{"BranchId":"817","Name":"新北市蘆洲區(永樂店)","Address":"新北市蘆洲區永樂街43-1號","Tel":"02-22883862","Latitude":"25.0883268","Longitude":"121.4576644","MarkerImg":"chingshin.png"},{"BranchId":"818","Name":"新北市蘆洲區(得勝店)","Address":"新北市蘆洲區得勝街123號","Tel":"02-22889666","Latitude":"25.083177","Longitude":"121.472439","MarkerImg":"chingshin.png"},{"BranchId":"819","Name":"新北市鶯歌區(文化店)","Address":"新北市鶯歌區鶯桃路310號","Tel":"02-26771123","Latitude":"24.961712","Longitude":"121.3340971","MarkerImg":"chingshin.png"},{"BranchId":"820","Name":"新北市鶯歌鎮(南雅店)","Address":"新北市鶯歌鎮南雅路41號","Tel":"02-26700701","Latitude":"24.954264","Longitude":"121.348629","MarkerImg":"chingshin.png"},{"BranchId":"821","Name":"新北市鶯歌鎮(建國店)","Address":"新北市鶯歌鎮建國路122號1樓","Tel":"02-26772222","Latitude":"24.954219","Longitude":"121.352662","MarkerImg":"chingshin.png"},{"BranchId":"822","Name":"新北市鶯歌鎮(鶯桃店)","Address":"新北市鶯歌鎮鶯桃路589號","Tel":"02-26790661","Latitude":"24.9687909","Longitude":"121.329249","MarkerImg":"chingshin.png"},{"BranchId":"823","Name":"新店市三民路(中華店)","Address":"新北市新店市三民路113號","Tel":"02-29150886","Latitude":"24.9719759","Longitude":"121.534941","MarkerImg":"chingshin.png"},{"BranchId":"824","Name":"新竹市大庄路(大庄店)","Address":"新竹市大庄路46號","Tel":"03-5387868","Latitude":"24.78933","Longitude":"120.927738","MarkerImg":"chingshin.png"},{"BranchId":"825","Name":"新竹市中山路(中山店)","Address":"新竹市西大路416號","Tel":"03-5250586","Latitude":"24.803379","Longitude":"120.964904","MarkerImg":"chingshin.png"},{"BranchId":"826","Name":"新竹市中央路(中央店)","Address":"新竹市中央路304號","Tel":"03-5439911","Latitude":"24.8101058","Longitude":"120.9779275","MarkerImg":"chingshin.png"},{"BranchId":"827","Name":"新竹市中正路(中正店)","Address":"新竹市中正路273號","Tel":"035-313152","Latitude":"24.813022","Longitude":"120.963401","MarkerImg":"chingshin.png"},{"BranchId":"828","Name":"新竹市五福路(五福店)","Address":"新竹市五福路二段719號","Tel":"03-5183589","Latitude":"24.7555054","Longitude":"120.9428455","MarkerImg":"chingshin.png"},{"BranchId":"829","Name":"新竹市水田街(水田店)","Address":"新竹市水田街85號","Tel":"03-5351622","Latitude":"24.815651","Longitude":"120.967647","MarkerImg":"chingshin.png"},{"BranchId":"830","Name":"新竹市北大路(北大店)","Address":"新竹市北大路403號","Tel":"03-5235906","Latitude":"24.8033732","Longitude":"120.9605612","MarkerImg":"chingshin.png"},{"BranchId":"831","Name":"新竹市民生路(民生店)","Address":"新竹市民生路262號","Tel":"03-5311386","Latitude":"24.8127154","Longitude":"120.9751736","MarkerImg":"chingshin.png"},{"BranchId":"832","Name":"新竹市光復路(大學店)","Address":"新竹市光復路二段22號","Tel":"03-5719953","Latitude":"24.7914116","Longitude":"121.0042884","MarkerImg":"chingshin.png"},{"BranchId":"833","Name":"新竹市光復路(光復店)","Address":"新竹市光復路一段162號","Tel":"03-5632788","Latitude":"24.78177","Longitude":"121.022767","MarkerImg":"chingshin.png"},{"BranchId":"834","Name":"新竹市光復路(長春店)","Address":"新竹市光復路一段442號","Tel":"03-5788856","Latitude":"24.7848646","Longitude":"121.0139108","MarkerImg":"chingshin.png"},{"BranchId":"835","Name":"新竹市西大路(西大店)","Address":"新竹市西大路650號","Tel":"03-5246611","Latitude":"24.80817","Longitude":"120.9612","MarkerImg":"chingshin.png"},{"BranchId":"836","Name":"新竹市忠孝路(忠孝店)","Address":"新竹市忠孝路241號","Tel":"03-5721321","Latitude":"24.8054","Longitude":"120.987359","MarkerImg":"chingshin.png"},{"BranchId":"837","Name":"新竹市東大路(東大店)","Address":"新竹市東大路四段246-1號","Tel":"03-5360134","Latitude":"24.844903","Longitude":"120.929744","MarkerImg":"chingshin.png"},{"BranchId":"838","Name":"新竹市東門街(東門店)","Address":"新竹市東門街139號","Tel":"03-5285058","Latitude":"24.803935","Longitude":"120.9677561","MarkerImg":"chingshin.png"},{"BranchId":"839","Name":"新竹市林森路(四維店)","Address":"新竹市林森路261號","Tel":"03-5280369","Latitude":"24.7982244","Longitude":"120.9629746","MarkerImg":"chingshin.png"},{"BranchId":"840","Name":"新竹市林森路(林森店)","Address":"新竹市林森路76號","Tel":"03-5250111","Latitude":"24.8010635","Longitude":"120.9672408","MarkerImg":"chingshin.png"},{"BranchId":"841","Name":"新竹市金山(金山店)","Address":"新竹市金山九街38號","Tel":"03-6661608","Latitude":"24.7780201","Longitude":"121.020827","MarkerImg":"chingshin.png"},{"BranchId":"842","Name":"新竹市南大路(明湖店)","Address":"新竹市南大路619號","Tel":"03-5629787","Latitude":"24.7880023","Longitude":"120.9672623","MarkerImg":"chingshin.png"},{"BranchId":"843","Name":"新竹市南大路(南大店)","Address":"新竹市南大路448號","Tel":"03-5611316","Latitude":"24.7969281","Longitude":"120.968108","MarkerImg":"chingshin.png"},{"BranchId":"844","Name":"新竹市建新路(建新店)","Address":"新竹市建新路34號","Tel":"03-5728218","Latitude":"24.79812","Longitude":"120.99696","MarkerImg":"chingshin.png"},{"BranchId":"845","Name":"新竹市食品路(食品店)","Address":"新竹市食品路231號","Tel":"03-5611367","Latitude":"24.7956661","Longitude":"120.974341","MarkerImg":"chingshin.png"},{"BranchId":"846","Name":"新竹市寶山路(寶山店)","Address":"新竹市寶山路120號","Tel":"03-5629595","Latitude":"24.7924402","Longitude":"120.9752276","MarkerImg":"chingshin.png"},{"BranchId":"847","Name":"新竹縣竹北市(中正西店)","Address":"新竹縣竹北市中正西路81號","Tel":"03-5518897","Latitude":"24.8405586","Longitude":"121.0010485","MarkerImg":"chingshin.png"},{"BranchId":"848","Name":"新竹縣竹北市(中正東店)","Address":"新竹縣竹北市中正東路172號","Tel":"03-5538176","Latitude":"24.8352409","Longitude":"121.0154653","MarkerImg":"chingshin.png"},{"BranchId":"849","Name":"新竹縣竹北市(中華店)","Address":"新竹縣竹北市中華路353號","Tel":"03-5511099","Latitude":"24.8372234","Longitude":"121.0044822","MarkerImg":"chingshin.png"},{"BranchId":"850","Name":"新竹縣竹北市(文興店)","Address":"新竹縣竹北市文興路一段238號","Tel":"03-6682088","Latitude":"24.8102226","Longitude":"121.0285918","MarkerImg":"chingshin.png"},{"BranchId":"851","Name":"新竹縣竹北市(光明店)","Address":"新竹縣竹北市光明六路東一段255號","Tel":"03-5503677","Latitude":"24.8206333","Longitude":"121.0268747","MarkerImg":"chingshin.png"},{"BranchId":"852","Name":"新竹縣竹北市(竹北三民店)","Address":"新竹縣竹北市三民路257號","Tel":"03-5536122","Latitude":"24.8330643","Longitude":"121.0130791","MarkerImg":"chingshin.png"},{"BranchId":"853","Name":"新竹縣竹北市(博愛二店)","Address":"新竹縣竹北市博愛街139號1樓","Tel":"03-5519335","Latitude":"24.8313078","Longitude":"121.0047394","MarkerImg":"chingshin.png"},{"BranchId":"854","Name":"新竹縣竹北市(博愛店)","Address":"新竹縣竹北市博愛街455號","Tel":"03-5527263","Latitude":"24.8381685","Longitude":"121.0097964","MarkerImg":"chingshin.png"},{"BranchId":"855","Name":"新竹縣竹北市(縣政店)","Address":"新竹縣竹北市縣政二路460號","Tel":"03-5588658","Latitude":"24.8290523","Longitude":"121.0173833","MarkerImg":"chingshin.png"},{"BranchId":"856","Name":"新竹縣竹東鎮(二重店)","Address":"新竹縣竹東鎮中興路三段183號","Tel":"03-5825719","Latitude":"24.7674653","Longitude":"121.0557909","MarkerImg":"chingshin.png"},{"BranchId":"857","Name":"新竹縣竹東鎮(中興店)","Address":"新竹縣竹東鎮長春路3段273號 *","Tel":"03-5110866","Latitude":"24.7455921","Longitude":"121.0816444","MarkerImg":"chingshin.png"},{"BranchId":"858","Name":"新竹縣竹東鎮(中豐店)","Address":"新竹縣竹東鎮中豐路二段17號","Tel":"03-5104577","Latitude":"24.7219373","Longitude":"121.0957799","MarkerImg":"chingshin.png"},{"BranchId":"859","Name":"新竹縣竹東鎮(長春店)","Address":"新竹縣竹東鎮長春路二段61號1樓","Tel":"03-5959843","Latitude":"24.7383664","Longitude":"121.0878315","MarkerImg":"chingshin.png"},{"BranchId":"860","Name":"新竹縣芎林鄉(文山店)","Address":"新竹縣芎林鄉文山路521號","Tel":"03-5921158","Latitude":"24.7770126","Longitude":"121.07787","MarkerImg":"chingshin.png"},{"BranchId":"861","Name":"新竹縣湖口鄉(工業店)","Address":"新竹縣湖口鄉工業一路25號","Tel":"03-5983077","Latitude":"24.8697403","Longitude":"121.0267167","MarkerImg":"chingshin.png"},{"BranchId":"862","Name":"新竹縣湖口鄉(仁和店)","Address":"新竹縣湖口鄉仁和路141號","Tel":"03-6960522","Latitude":"24.872846","Longitude":"121.0149407","MarkerImg":"chingshin.png"},{"BranchId":"863","Name":"新竹縣湖口鄉(民權店)","Address":"新竹縣湖口鄉民權街36之2號","Tel":"03-6993767","Latitude":"24.9015054","Longitude":"121.0458067","MarkerImg":"chingshin.png"},{"BranchId":"864","Name":"新竹縣新埔鎮(中正店)","Address":"新竹縣新埔鎮中正路716號","Tel":"03-5888129","Latitude":"24.82772","Longitude":"121.072754","MarkerImg":"chingshin.png"},{"BranchId":"865","Name":"新竹縣新豐鄉(建興店)","Address":"新竹縣新豐鄉建興路一段143號1樓","Tel":"03-5578738","Latitude":"24.8747908","Longitude":"120.9943655","MarkerImg":"chingshin.png"},{"BranchId":"866","Name":"新竹縣新豐鄉(新興店)","Address":"新竹縣新豐鄉新興路39號","Tel":"03-5576815","Latitude":"24.8655292","Longitude":"120.992201","MarkerImg":"chingshin.png"},{"BranchId":"867","Name":"新竹縣橫山鄉(中正店)","Address":"新竹縣橫山鄉內灣村中正路83號","Tel":"03-5849155","Latitude":"24.7052468","Longitude":"121.1821389","MarkerImg":"chingshin.png"},{"BranchId":"868","Name":"新竹縣關西鎮(明德店)","Address":"新竹縣關西鎮明德路99號","Tel":"03-5871288","Latitude":"24.7935328","Longitude":"121.1761708","MarkerImg":"chingshin.png"},{"BranchId":"869","Name":"新竹縣寶山鄉(寶新店)","Address":"新竹縣寶山鄉明湖路67號","Tel":"03-5191500","Latitude":"24.7646937","Longitude":"120.9870772","MarkerImg":"chingshin.png"},{"BranchId":"870","Name":"嘉義市大雅路(大雅店)","Address":"嘉義市大雅路二段646號","Tel":"05-2779988","Latitude":"23.4773534","Longitude":"120.467002","MarkerImg":"chingshin.png"},{"BranchId":"871","Name":"嘉義市中山路(中山店)","Address":"嘉義市中山路527號","Tel":"05-2226032","Latitude":"23.451226","Longitude":"120.4689563","MarkerImg":"chingshin.png"},{"BranchId":"872","Name":"嘉義市仁愛路(仁愛店)","Address":"嘉義市仁愛路472號","Tel":"05-2284233","Latitude":"23.475899","Longitude":"120.4422789","MarkerImg":"chingshin.png"},{"BranchId":"873","Name":"嘉義市文化路(世賢店)","Address":"嘉義市文化路647號","Tel":"05-2346611","Latitude":"23.4946159","Longitude":"120.4438448","MarkerImg":"chingshin.png"},{"BranchId":"874","Name":"嘉義市台林街(台林店)","Address":"嘉義市台林街118號","Tel":"05-2763992","Latitude":"23.5057054","Longitude":"120.4637184","MarkerImg":"chingshin.png"},{"BranchId":"875","Name":"嘉義市吳鳳北路(吳鳳店)","Address":"嘉義市吳鳳北路77號","Tel":"05-2286518","Latitude":"23.4761229","Longitude":"120.4536111","MarkerImg":"chingshin.png"},{"BranchId":"876","Name":"嘉義市吳鳳南路(後庄店)","Address":"嘉義市吳鳳南路617號","Tel":"05-2393288","Latitude":"23.4557848","Longitude":"120.459195","MarkerImg":"chingshin.png"},{"BranchId":"877","Name":"嘉義市東區(友愛店)","Address":"嘉義市東區友愛路164號","Tel":"05-2348666","Latitude":"23.4800008","Longitude":"120.434121","MarkerImg":"chingshin.png"},{"BranchId":"878","Name":"嘉義市林森東路(垂楊二店)","Address":"嘉義市林森東路298號","Tel":"05-2785322","Latitude":"23.4888538","Longitude":"120.4638958","MarkerImg":"chingshin.png"},{"BranchId":"879","Name":"嘉義市垂楊路(垂楊店)","Address":"嘉義市垂楊路440號","Tel":"05-2258687","Latitude":"23.4738186","Longitude":"120.4489194","MarkerImg":"chingshin.png"},{"BranchId":"880","Name":"嘉義市新民路(新民店)","Address":"嘉義市新民路852號","Tel":"05-2854088","Latitude":"23.4718611","Longitude":"120.4398728","MarkerImg":"chingshin.png"},{"BranchId":"881","Name":"嘉義市新生路(新生店)","Address":"嘉義市東區新生路168號","Tel":"05-2752285","Latitude":"23.4808341","Longitude":"120.4612983","MarkerImg":"chingshin.png"},{"BranchId":"882","Name":"嘉義市興業西路(興業店)","Address":"嘉義市興業西路339號","Tel":"05-2867213","Latitude":"23.4675791","Longitude":"120.4376745","MarkerImg":"chingshin.png"},{"BranchId":"883","Name":"嘉義縣大林鎮(大林店)","Address":"嘉義縣大林鎮中正路530號","Tel":"05-2651188","Latitude":"23.6033429","Longitude":"120.4542602","MarkerImg":"chingshin.png"},{"BranchId":"884","Name":"嘉義縣中埔鄉(頂六店)","Address":"嘉義縣中埔鄉頂中下街7-1號","Tel":"05-2392711","Latitude":"23.447494","Longitude":"120.491952","MarkerImg":"chingshin.png"},{"BranchId":"885","Name":"嘉義縣六腳鄉(蒜頭店)","Address":"嘉義縣六腳鄉蒜頭村190-1號","Tel":"05-3806277","Latitude":"23.4947641","Longitude":"120.2919524","MarkerImg":"chingshin.png"},{"BranchId":"886","Name":"嘉義縣太保市(太保二店)","Address":"嘉義縣太保市北港路二段131號","Tel":"05-2381166","Latitude":"23.4968615","Longitude":"120.3799225","MarkerImg":"chingshin.png"},{"BranchId":"887","Name":"嘉義縣太保市(太保店)","Address":"嘉義縣太保市麻寮里中山路二段46之2號","Tel":"05-2372681","Latitude":"23.4990715","Longitude":"120.3744824","MarkerImg":"chingshin.png"},{"BranchId":"888","Name":"嘉義縣太保市(後潭店)","Address":"嘉義縣朴子市四維路一段9號","Tel":"05-3702881","Latitude":"23.4625353","Longitude":"120.2501455","MarkerImg":"chingshin.png"},{"BranchId":"889","Name":"嘉義縣太保市(祥和店)","Address":"嘉義縣太保市祥和三路東段35號","Tel":"05-3621566","Latitude":"23.4547446","Longitude":"120.2936968","MarkerImg":"chingshin.png"},{"BranchId":"890","Name":"嘉義縣水上鄉(水上店)","Address":"嘉義縣水上鄉水頭村中興路298號","Tel":"05-2685738","Latitude":"23.4301095","Longitude":"120.4023185","MarkerImg":"chingshin.png"},{"BranchId":"891","Name":"嘉義縣布袋鎮(上海店)","Address":"嘉義縣布袋鎮上海路225號","Tel":"05-3479578","Latitude":"23.3789083","Longitude":"120.1604789","MarkerImg":"chingshin.png"},{"BranchId":"892","Name":"嘉義縣民雄鄉(民雄店)","Address":"嘉義縣興南村建國路三段173之2號","Tel":"05-2134321","Latitude":"23.5239888","Longitude":"120.4392298","MarkerImg":"chingshin.png"},{"BranchId":"893","Name":"嘉義縣民雄鄉(江厝店)","Address":"嘉義縣民雄鄉江厝店1-1號","Tel":"05-2202168","Latitude":"23.5245723","Longitude":"120.4218987","MarkerImg":"chingshin.png"},{"BranchId":"894","Name":"嘉義縣民雄鄉(和平店)","Address":"嘉義縣民雄鄉和平路29號","Tel":"05-2260303","Latitude":"23.5559082","Longitude":"120.4314718","MarkerImg":"chingshin.png"},{"BranchId":"895","Name":"嘉義縣民雄鄉(神農店)","Address":"嘉義縣民雄鄉三興村7鄰神農路186巷2-8號","Tel":"05-2723629","Latitude":"23.55677","Longitude":"120.471198","MarkerImg":"chingshin.png"},{"BranchId":"896","Name":"嘉義縣朴子市(山通店)","Address":"嘉義縣朴子市山通路86-2號","Tel":"05-3792288","Latitude":"23.4668243","Longitude":"120.2468208","MarkerImg":"chingshin.png"},{"BranchId":"897","Name":"嘉義縣朴子市(朴子二店)","Address":"嘉義縣朴子市應菜埔路37-24號","Tel":"05-3796662","Latitude":"23.46513","Longitude":"120.231766","MarkerImg":"chingshin.png"},{"BranchId":"898","Name":"嘉義縣梅山鄉(中山店)","Address":"嘉義縣梅山鄉中山路276號","Tel":"05-2626269","Latitude":"23.5849339","Longitude":"120.555763","MarkerImg":"chingshin.png"},{"BranchId":"899","Name":"嘉義縣鹿草鄉(西井店)","Address":"嘉義縣鹿草鄉西井村542號","Tel":"05-3755355","Latitude":"23.4184185","Longitude":"120.3003035","MarkerImg":"chingshin.png"},{"BranchId":"900","Name":"嘉義縣新港鄉(奉天店)","Address":"嘉義縣新港鄉宮前村中山路98號","Tel":"05-3743111","Latitude":"23.5535681","Longitude":"120.3472757","MarkerImg":"chingshin.png"},{"BranchId":"901","Name":"嘉義縣溪口鄉(溪民店)","Address":"嘉義縣溪口鄉溪民路2號","Tel":"05-2696530","Latitude":"23.6044338","Longitude":"120.4000682","MarkerImg":"chingshin.png"},{"BranchId":"902","Name":"嘉義縣義竹鄉(六桂店)","Address":"嘉義縣義竹鄉六桂村156-3號","Tel":"05-3417877","Latitude":"23.3374943","Longitude":"120.2442751","MarkerImg":"chingshin.png"},{"BranchId":"903","Name":"彰化市(彰南店)","Address":"彰化市彰南路一段270號","Tel":"04-7373188","Latitude":"24.086026","Longitude":"120.5721552","MarkerImg":"chingshin.png"},{"BranchId":"904","Name":"彰化市大埔路(大埔二店)","Address":"彰化市大埔路423號","Tel":"04-7128383","Latitude":"24.0630556","Longitude":"120.5434935","MarkerImg":"chingshin.png"},{"BranchId":"905","Name":"彰化市大埔路(大埔店)","Address":"彰化市大埔路616號","Tel":"04-7115522","Latitude":"24.0670409","Longitude":"120.542764","MarkerImg":"chingshin.png"},{"BranchId":"906","Name":"彰化市中正路(中正店)","Address":"彰化市中正路二段580號","Tel":"04-7221917","Latitude":"24.069446","Longitude":"120.535411","MarkerImg":"chingshin.png"},{"BranchId":"907","Name":"彰化市中華西路(中華西店)","Address":"彰化市中華西路373號","Tel":"04-7611018","Latitude":"24.0686595","Longitude":"120.5266499","MarkerImg":"chingshin.png"},{"BranchId":"908","Name":"彰化市民生路(民生店)","Address":"彰化市民生路46號","Tel":"04-7221911","Latitude":"24.0757257","Longitude":"120.5427675","MarkerImg":"chingshin.png"},{"BranchId":"909","Name":"彰化市光復路(光復店)","Address":"彰化市光復路155號","Tel":"04-7225256","Latitude":"24.0806583","Longitude":"120.5397129","MarkerImg":"chingshin.png"},{"BranchId":"910","Name":"彰化市自強路(自強店)","Address":"彰化市自強路185-1號","Tel":"047-330336","Latitude":"24.090235","Longitude":"120.543282","MarkerImg":"chingshin.png"},{"BranchId":"911","Name":"彰化市南郭路(南郭店)","Address":"彰化市南郭路一段226-7號1樓","Tel":"04-7286635","Latitude":"24.0730529","Longitude":"120.548693","MarkerImg":"chingshin.png"},{"BranchId":"912","Name":"彰化市泰和路(泰和店)","Address":"彰化市泰和路二段４１3號","Tel":"047-223186","Latitude":"24.0956347","Longitude":"120.5563725","MarkerImg":"chingshin.png"},{"BranchId":"913","Name":"彰化市華山路(華山店)","Address":"彰化市華山路201號","Tel":"04-7261233","Latitude":"24.0752326","Longitude":"120.5378637","MarkerImg":"chingshin.png"},{"BranchId":"914","Name":"彰化市實踐路(實踐店)","Address":"彰化市實踐路40號","Tel":"04-7238768","Latitude":"24.0833005","Longitude":"120.5539528","MarkerImg":"chingshin.png"},{"BranchId":"915","Name":"彰化市彰水路(彰水店)","Address":"彰化市彰水路178-11號","Tel":"04-7611688","Latitude":"24.0565847","Longitude":"120.5155304","MarkerImg":"chingshin.png"},{"BranchId":"916","Name":"彰化市彰南路(一心店)","Address":"彰化市彰南路三段302號","Tel":"04-7375386","Latitude":"24.0813796","Longitude":"120.5989206","MarkerImg":"chingshin.png"},{"BranchId":"917","Name":"彰化市彰美路(彰美店)","Address":"彰化市彰美路一段241號","Tel":"04-7296258","Latitude":"24.089432","Longitude":"120.536763","MarkerImg":"chingshin.png"},{"BranchId":"918","Name":"彰化縣二水鎮(光文店)","Address":"彰化縣二水鄉光文路57號","Tel":"04-8790966","Latitude":"23.8122369","Longitude":"120.6171417","MarkerImg":"chingshin.png"},{"BranchId":"919","Name":"彰化縣二林鎮(中山店)","Address":"彰化縣二林鎮中山路139號","Tel":"04-8965569","Latitude":"23.899843","Longitude":"120.3672643","MarkerImg":"chingshin.png"},{"BranchId":"920","Name":"彰化縣二林鎮(斗苑店)","Address":"彰化縣二林鎮斗苑路四段427號","Tel":"04-8967711","Latitude":"23.8994726","Longitude":"120.3788694","MarkerImg":"chingshin.png"},{"BranchId":"921","Name":"彰化縣二林鎮(新生店)","Address":"彰化縣二林鎮新生路10號","Tel":"04-8958360","Latitude":"23.8995819","Longitude":"120.3689433","MarkerImg":"chingshin.png"},{"BranchId":"922","Name":"彰化縣大村鄉(山腳店)","Address":"彰化縣大村鄉山腳路109-6號","Tel":"04-8526687","Latitude":"23.9940298","Longitude":"120.582033","MarkerImg":"chingshin.png"},{"BranchId":"923","Name":"彰化縣大村鄉(中山店)","Address":"彰化縣大村鄉中山路2段321號","Tel":"04-8526607","Latitude":"23.9899798","Longitude":"120.5632375","MarkerImg":"chingshin.png"},{"BranchId":"924","Name":"彰化縣大城鄉(南平店)","Address":"彰化縣大城鄉南平路364號","Tel":"04-8942288","Latitude":"23.8536272","Longitude":"120.3205341","MarkerImg":"chingshin.png"},{"BranchId":"925","Name":"彰化縣北斗鎮(中州店)","Address":"彰化縣北斗鎮中州路二段532號","Tel":"04-8875718","Latitude":"23.8509507","Longitude":"120.5723837","MarkerImg":"chingshin.png"},{"BranchId":"926","Name":"彰化縣北斗鎮(中華二店)","Address":"彰化縣北斗鎮中華路46號","Tel":"04-8876611","Latitude":"23.8732807","Longitude":"120.5271735","MarkerImg":"chingshin.png"},{"BranchId":"927","Name":"彰化縣北斗鎮(中華店)","Address":"彰化縣北斗鎮中華路340號","Tel":"04-8870161","Latitude":"23.8730301","Longitude":"120.5197409","MarkerImg":"chingshin.png"},{"BranchId":"928","Name":"彰化縣永靖鄉(中山店)","Address":"彰化縣永靖鄉中山路三段465號","Tel":"04-8244177","Latitude":"23.9376236","Longitude":"120.5579071","MarkerImg":"chingshin.png"},{"BranchId":"929","Name":"彰化縣永靖鄉(瑚璉店)","Address":"彰化縣永靖鄉瑚璉路212號","Tel":"04-8244228","Latitude":"23.9251615","Longitude":"120.5488983","MarkerImg":"chingshin.png"},{"BranchId":"930","Name":"彰化縣田中鎮(中州店)","Address":"彰化縣田中鎮中州路一段90號","Tel":"04-8763632","Latitude":"23.8582711","Longitude":"120.5892197","MarkerImg":"chingshin.png"},{"BranchId":"931","Name":"彰化縣田尾鄉(中山店)","Address":"彰化縣田尾鄉中山路一段382號","Tel":"04-8830223","Latitude":"23.8899986","Longitude":"120.5269571","MarkerImg":"chingshin.png"},{"BranchId":"932","Name":"彰化縣竹塘鄉(竹林店)","Address":"彰化縣竹塘鄉竹林路一段168號","Tel":"04-8971897","Latitude":"23.8583835","Longitude":"120.4292647","MarkerImg":"chingshin.png"},{"BranchId":"933","Name":"彰化縣伸港鄉(中興店)","Address":"彰化縣伸港鄉中興路二段346號","Tel":"04-7998222","Latitude":"24.161835","Longitude":"120.487367","MarkerImg":"chingshin.png"},{"BranchId":"934","Name":"彰化縣伸港鄉(信義店)","Address":"彰化縣伸港鄉中山路47號","Tel":"04-7987286","Latitude":"24.1472345","Longitude":"120.4856599","MarkerImg":"chingshin.png"},{"BranchId":"935","Name":"彰化縣秀水鄉(中山店)","Address":"彰化縣秀水鄉中山路369號","Tel":"04-7686255","Latitude":"24.0344883","Longitude":"120.5002474","MarkerImg":"chingshin.png"},{"BranchId":"936","Name":"彰化縣秀水鄉(彰水店)","Address":"彰化縣福興鄉萬豐村彰水路86號","Tel":"04-7696996","Latitude":"24.0127883","Longitude":"120.486797","MarkerImg":"chingshin.png"},{"BranchId":"937","Name":"彰化縣和美鎮(道周店)","Address":"彰化縣和美鎮道周路361號","Tel":"04-7572911","Latitude":"24.1070934","Longitude":"120.4972907","MarkerImg":"chingshin.png"},{"BranchId":"938","Name":"彰化縣和美鎮(彰美店)","Address":"彰化縣和美鎮彰美路六段101號","Tel":"04-7576222","Latitude":"24.113986","Longitude":"120.496852","MarkerImg":"chingshin.png"},{"BranchId":"939","Name":"彰化縣和美鎮(彰草店)","Address":"彰化縣和美鎮彰草路二段669號","Tel":"04-7510228","Latitude":"24.0813434","Longitude":"120.4999798","MarkerImg":"chingshin.png"},{"BranchId":"940","Name":"彰化縣和美鎮(彰新店)","Address":"彰化縣和美鎮彰新路二段533號","Tel":"04-7330952","Latitude":"24.1046392","Longitude":"120.5331941","MarkerImg":"chingshin.png"},{"BranchId":"941","Name":"彰化縣社頭鄉(社斗店)","Address":"彰化縣社頭鄉社斗路一段345號","Tel":"04-8725568","Latitude":"23.896725","Longitude":"120.585084","MarkerImg":"chingshin.png"},{"BranchId":"942","Name":"彰化縣社頭鄉(員集店)","Address":"彰化縣社頭鄉員集路2段277號","Tel":"04-8711066","Latitude":"23.899764","Longitude":"120.5872277","MarkerImg":"chingshin.png"},{"BranchId":"943","Name":"彰化縣芳苑鄉(王功店)","Address":"彰化縣芳苑鄉芳漢路552號","Tel":"04-8936700","Latitude":"23.9876246","Longitude":"120.3571212","MarkerImg":"chingshin.png"},{"BranchId":"944","Name":"彰化縣花壇鄉(中山店)","Address":"彰化縣花壇鄉中山路二段20號","Tel":"04-7862288","Latitude":"24.026108","Longitude":"120.539429","MarkerImg":"chingshin.png"},{"BranchId":"945","Name":"彰化縣花壇鄉(廖厝店)","Address":"彰化縣花壇鄉中山路二段645號","Tel":"04-7883336","Latitude":"24.0446547","Longitude":"120.5336311","MarkerImg":"chingshin.png"},{"BranchId":"946","Name":"彰化縣芬園鄉(彰南店)","Address":"彰化縣芬園鄉彰南路四段107號","Tel":"049-2520666","Latitude":"24.0150316","Longitude":"120.6285929","MarkerImg":"chingshin.png"},{"BranchId":"947","Name":"彰化縣員林鎮(大同店)","Address":"彰化縣員林鎮大同路二段134號","Tel":"04-8380868","Latitude":"23.9690617","Longitude":"120.5761251","MarkerImg":"chingshin.png"},{"BranchId":"948","Name":"彰化縣員林鎮(中山店)","Address":"彰化縣員林鎮中山路二段143號","Tel":"04-8325881","Latitude":"23.9639852","Longitude":"120.5711273","MarkerImg":"chingshin.png"},{"BranchId":"949","Name":"彰化縣員林鎮(中正店)","Address":"彰化縣員林鎮中正路254號","Tel":"04-8392281","Latitude":"23.9546663","Longitude":"120.5744266","MarkerImg":"chingshin.png"},{"BranchId":"950","Name":"彰化縣員林鎮(和平店)","Address":"彰化縣員林鎮三民東街328號","Tel":"04-8399818","Latitude":"23.9604858","Longitude":"120.5816776","MarkerImg":"chingshin.png"},{"BranchId":"951","Name":"彰化縣員林鎮(員東店)","Address":"彰化縣員林鎮員東路一段33號","Tel":"04-8334000","Latitude":"23.963562","Longitude":"120.5996014","MarkerImg":"chingshin.png"},{"BranchId":"952","Name":"彰化縣員林鎮(新興店)","Address":"彰化縣員林鎮靜修東路20號","Tel":"04-8365712","Latitude":"23.9629811","Longitude":"120.5749798","MarkerImg":"chingshin.png"},{"BranchId":"953","Name":"彰化縣員林鎮(靜修店)","Address":"彰化縣員林鎮靜修路74-6號","Tel":"04-8393768","Latitude":"23.9623734","Longitude":"120.5655345","MarkerImg":"chingshin.png"},{"BranchId":"954","Name":"彰化縣埔心鄉(明聖店)","Address":"彰化縣埔心鄉員鹿路1段213號","Tel":"04-8285889","Latitude":"23.9552072","Longitude":"120.5581461","MarkerImg":"chingshin.png"},{"BranchId":"955","Name":"彰化縣埔心鄉(員鹿店)","Address":"彰化縣埔心鄉員鹿路2段381號","Tel":"04-8285198","Latitude":"23.9527086","Longitude":"120.5425703","MarkerImg":"chingshin.png"},{"BranchId":"956","Name":"彰化縣埔鹽鄉(彰水店)","Address":"彰化縣埔鹽鄉'彰水路一段300號","Tel":"04-8660582","Latitude":"23.9941629","Longitude":"120.4766751","MarkerImg":"chingshin.png"},{"BranchId":"957","Name":"彰化縣埤頭鄉(斗苑東店)","Address":"彰化縣埤頭鄉斗苑東路78號","Tel":"04-8873322","Latitude":"23.8887613","Longitude":"120.4822411","MarkerImg":"chingshin.png"},{"BranchId":"958","Name":"彰化縣埤頭鄉(彰水店)","Address":"彰化縣埤頭鄉彰水路3段458號","Tel":"04-8911122","Latitude":"23.890919","Longitude":"120.4591303","MarkerImg":"chingshin.png"},{"BranchId":"959","Name":"彰化縣鹿港鎮(民權店)","Address":"彰化縣鹿港鎮民權路273號","Tel":"04-7776876","Latitude":"24.055377","Longitude":"120.4328944","MarkerImg":"chingshin.png"},{"BranchId":"960","Name":"彰化縣鹿港鎮(鹿港二店)","Address":"彰化縣鹿港鎮鹿草路一段81號","Tel":"04-7785235","Latitude":"24.0609052","Longitude":"120.4326371","MarkerImg":"chingshin.png"},{"BranchId":"961","Name":"彰化縣鹿港鎮(鹿港店)","Address":"彰化縣鹿港鎮鹿東路19號","Tel":"04-7786711","Latitude":"24.0566384","Longitude":"120.4383746","MarkerImg":"chingshin.png"},{"BranchId":"962","Name":"彰化縣鹿港鎮(彰頂店)","Address":"彰化縣鹿港鎮彰頂路327號","Tel":"04-7721868","Latitude":"24.0856723","Longitude":"120.4823462","MarkerImg":"chingshin.png"},{"BranchId":"963","Name":"彰化縣溪洲鄉(中山店)","Address":"彰化縣溪州鄉中山路三段297號","Tel":"04-8898608","Latitude":"23.8532589","Longitude":"120.4933472","MarkerImg":"chingshin.png"},{"BranchId":"964","Name":"彰化縣溪湖鎮(員鹿店)","Address":"彰化縣溪湖鄉彰水路三段226號","Tel":"04-8850935","Latitude":"23.9584286","Longitude":"120.4803065","MarkerImg":"chingshin.png"},{"BranchId":"965","Name":"彰化縣溪湖鎮(彰水店)","Address":"彰化縣溪湖鎮彰水路三段483號","Tel":"04-8611579","Latitude":"23.9639377","Longitude":"120.479964","MarkerImg":"chingshin.png"},{"BranchId":"966","Name":"彰化縣福興鄉(西勢店)","Address":"彰化縣福興鄉員鹿路二段213號","Tel":"04-7756668","Latitude":"24.0402848","Longitude":"120.4359261","MarkerImg":"chingshin.png"},{"BranchId":"967","Name":"彰化縣福興鄉(沿海店)","Address":"彰化縣福興鄉沿海路五段324號","Tel":"04-7768586","Latitude":"24.0498789","Longitude":"120.431023","MarkerImg":"chingshin.png"},{"BranchId":"968","Name":"彰化縣福興鄉(彰鹿店)","Address":"彰化縣福興鄉彰鹿路七段618號","Tel":"04-7767518","Latitude":"24.0486872","Longitude":"120.4422475","MarkerImg":"chingshin.png"},{"BranchId":"969","Name":"彰化縣線西鄉(沿海店)","Address":"彰化縣線西鄉沿海路一段904號","Tel":"04-7586778","Latitude":"24.1345745","Longitude":"120.4634699","MarkerImg":"chingshin.png"}]